[
  {
    "id": "akko_1",
    "lat": 32.9276257,
    "lon": 35.0755771,
    "name": "מקלט - לוחמי הגטאות 39",
    "address": "לוחמי הגטאות 39, עכו",
    "city": "עכו",
    "capacity": "",
    "type": "מקלט ציבורי",
    "source": "gov",
    "category": "public",
    "addressEn": "Lokhamei ha-Geta'ot St 39, Acre, Israel",
    "neighborhood": "שני אליהו"
  },
  {
    "id": "akko_2",
    "lat": 32.9315337,
    "lon": 35.0721652,
    "name": "מקלט - דב גרונר 4",
    "address": "דב גרונר 4, עכו",
    "city": "עכו",
    "capacity": "",
    "type": "מקלט ציבורי",
    "source": "gov",
    "category": "public",
    "addressEn": "Dov Gruner St 4, Acre, Israel",
    "neighborhood": "שני אליהו"
  },
  {
    "id": "akko_3",
    "lat": 32.930868,
    "lon": 35.073773,
    "name": "מקלט - הרצל 19",
    "address": "הרצל 19, עכו",
    "city": "עכו",
    "capacity": "",
    "type": "מקלט ציבורי",
    "source": "gov",
    "category": "public",
    "addressEn": "Herzl St 19, Acre, Israel",
    "neighborhood": "שני אליהו"
  },
  {
    "id": "akko_4",
    "lat": 32.9312646,
    "lon": 35.0768781,
    "name": "מקלט - גיבורי סיני 29",
    "address": "גיבורי סיני 29, עכו",
    "city": "עכו",
    "capacity": "",
    "type": "מקלט ציבורי",
    "source": "gov",
    "category": "public",
    "addressEn": "Giborei Sinai St 29, Acre, Israel",
    "neighborhood": "שני אליהו"
  },
  {
    "id": "akko_5",
    "lat": 32.9307733,
    "lon": 35.0766964,
    "name": "מקלט - גיבורי סיני 25",
    "address": "גיבורי סיני 25, עכו",
    "city": "עכו",
    "capacity": "",
    "type": "מקלט ציבורי",
    "source": "gov",
    "category": "public",
    "addressEn": "Giborei Sinai St 25, Acre, Israel",
    "neighborhood": "שני אליהו"
  },
  {
    "id": "akko_6",
    "lat": 32.9305679,
    "lon": 35.0768397,
    "name": "מקלט - גיבורי סיני 30",
    "address": "גיבורי סיני 30, עכו",
    "city": "עכו",
    "capacity": "",
    "type": "מקלט ציבורי",
    "source": "gov",
    "category": "public",
    "addressEn": "Giborei Sinai St 30, Acre, Israel",
    "neighborhood": "שני אליהו"
  },
  {
    "id": "akko_7",
    "lat": 32.9306964,
    "lon": 35.0768847,
    "name": "מקלט - גיבורי סיני 32",
    "address": "גיבורי סיני 32, עכו",
    "city": "עכו",
    "capacity": "",
    "type": "מקלט ציבורי",
    "source": "gov",
    "category": "public",
    "addressEn": "Giborei Sinai St 32, Acre, Israel",
    "neighborhood": "שני אליהו"
  },
  {
    "id": "akko_8",
    "lat": 32.9297075,
    "lon": 35.0783947,
    "name": "מקלט - יאנוש קורצ'אק 5",
    "address": "יאנוש קורצ'אק 5, עכו",
    "city": "עכו",
    "capacity": "",
    "type": "מקלט ציבורי",
    "source": "gov",
    "category": "public",
    "addressEn": "Janus Korczak St 5, Acre, Israel",
    "neighborhood": "שני אליהו"
  },
  {
    "id": "akko_9",
    "lat": 32.9292477,
    "lon": 35.0787562,
    "name": "מקלט - יאנוש קורצ'אק 11",
    "address": "יאנוש קורצ'אק 11, עכו",
    "city": "עכו",
    "capacity": "",
    "type": "מקלט ציבורי",
    "source": "gov",
    "category": "public",
    "addressEn": "Janus Korczak St 11, Acre, Israel",
    "neighborhood": "שני אליהו"
  },
  {
    "id": "akko_10",
    "lat": 32.9292906,
    "lon": 35.0783512,
    "name": "מקלט - יאנוש קורצ'אק 2",
    "address": "יאנוש קורצ'אק 2, עכו",
    "city": "עכו",
    "capacity": "",
    "type": "מקלט ציבורי",
    "source": "gov",
    "category": "public",
    "addressEn": "Janus Korczak St 2, Acre, Israel",
    "neighborhood": "שני אליהו"
  },
  {
    "id": "akko_11",
    "lat": 32.9306063,
    "lon": 35.0947104,
    "name": "מקלט - רמב\"ם 16",
    "address": "רמב\"ם 16, עכו",
    "city": "עכו",
    "capacity": "",
    "type": "מקלט ציבורי",
    "source": "gov",
    "category": "public",
    "addressEn": "HaRambam St 16, Acre, Israel",
    "neighborhood": "שני אליהו"
  },
  {
    "id": "akko_12",
    "lat": 32.9288571,
    "lon": 35.0808378,
    "name": "מקלט - סר אייזיק 4",
    "address": "סר אייזיק 4, עכו",
    "city": "עכו",
    "capacity": "",
    "type": "מקלט ציבורי",
    "source": "gov",
    "category": "public",
    "addressEn": "Sir Isaac St 4, Acre, Israel",
    "neighborhood": "שני אליהו"
  },
  {
    "id": "akko_13",
    "lat": 32.9290618,
    "lon": 35.0798311,
    "name": "מקלט - דרך הארבעה 45",
    "address": "דרך הארבעה 45, עכו",
    "city": "עכו",
    "capacity": "",
    "type": "מקלט ציבורי",
    "source": "gov",
    "category": "public",
    "addressEn": "Derech HaArba'a 45, Akko, Israel",
    "neighborhood": "שכונת וולפסון"
  },
  {
    "id": "akko_14",
    "lat": 32.9259714,
    "lon": 35.0747323,
    "name": "מקלט - טרומפלדור 32",
    "address": "טרומפלדור 32, עכו",
    "city": "עכו",
    "capacity": "",
    "type": "מקלט ציבורי",
    "source": "gov",
    "category": "public",
    "addressEn": "Joseph Trumpeldor St 32, Acre, Israel",
    "neighborhood": "שכונת וולפסון"
  },
  {
    "id": "akko_15",
    "lat": 32.9236393,
    "lon": 35.0806873,
    "name": "מקלט - החרושת 4",
    "address": "החרושת 4, עכו",
    "city": "עכו",
    "capacity": "",
    "type": "מקלט ציבורי",
    "source": "gov",
    "category": "public",
    "addressEn": "HaHaroshet St 4, Acre, Israel",
    "neighborhood": "שכונת וולפסון"
  },
  {
    "id": "akko_16",
    "lat": 32.938962,
    "lon": 35.07885,
    "name": "מקלט - האורן 29",
    "address": "האורן 29, עכו",
    "city": "עכו",
    "capacity": "",
    "type": "מקלט ציבורי",
    "source": "gov",
    "category": "public",
    "addressEn": "Ha-Oren St 29, Acre, Israel",
    "neighborhood": "שכונת וולפסון"
  },
  {
    "id": "akko_17",
    "lat": 32.9364073,
    "lon": 35.0793449,
    "name": "מקלט - האורן 28",
    "address": "האורן 28, עכו",
    "city": "עכו",
    "capacity": "",
    "type": "מקלט ציבורי",
    "source": "gov",
    "category": "public",
    "addressEn": "Ha-Oren St 28, Acre, 2440714, Israel",
    "neighborhood": "שכונת וולפסון"
  },
  {
    "id": "akko_18",
    "lat": 32.9260318,
    "lon": 35.0827579,
    "name": "מקלט - רמז 1",
    "address": "רמז 1, עכו",
    "city": "עכו",
    "capacity": "",
    "type": "מקלט ציבורי",
    "source": "gov",
    "category": "public",
    "addressEn": "David Remez St 1, Acre, Israel",
    "neighborhood": "שכונת וולפסון"
  },
  {
    "id": "akko_19",
    "lat": 32.9269678,
    "lon": 35.08550930000001,
    "name": "מקלט - היוצרים 6",
    "address": "היוצרים 6, עכו",
    "city": "עכו",
    "capacity": "",
    "type": "מקלט ציבורי",
    "source": "gov",
    "category": "public",
    "addressEn": "Ha-Yotsrim St 6, Acre, Israel",
    "neighborhood": "יהושפט"
  },
  {
    "id": "akko_20",
    "lat": 32.92666,
    "lon": 35.084852,
    "name": "מקלט - קיבוץ גלויות 4",
    "address": "קיבוץ גלויות 4, עכו",
    "city": "עכו",
    "capacity": "",
    "type": "מקלט ציבורי",
    "source": "gov",
    "category": "public",
    "addressEn": "Kibuts Galuyot St, Acre, Israel",
    "neighborhood": "יהושפט"
  },
  {
    "id": "akko_21",
    "lat": 32.9255686,
    "lon": 35.0851027,
    "name": "מקלט - קיבוץ גלויות 1",
    "address": "קיבוץ גלויות 1, עכו",
    "city": "עכו",
    "capacity": "",
    "type": "מקלט ציבורי",
    "source": "gov",
    "category": "public",
    "addressEn": "Kibuts Galuyot St 1, Acre, Israel",
    "neighborhood": "יהושפט"
  },
  {
    "id": "akko_22",
    "lat": 32.9242871,
    "lon": 35.0869967,
    "name": "מקלט - עציון 10",
    "address": "עציון 10, עכו",
    "city": "עכו",
    "capacity": "",
    "type": "מקלט ציבורי",
    "source": "gov",
    "category": "public",
    "addressEn": "Ha-Etsyon St 10, Acre, Israel",
    "neighborhood": "יהושפט"
  },
  {
    "id": "akko_23",
    "lat": 32.9247007,
    "lon": 35.0865245,
    "name": "מקלט - יוסף כתראן 4",
    "address": "יוסף כתראן 4, עכו",
    "city": "עכו",
    "capacity": "",
    "type": "מקלט ציבורי",
    "source": "gov",
    "category": "public",
    "addressEn": "Yosef Katran St 4, Acre, Israel",
    "neighborhood": "יהושפט"
  },
  {
    "id": "akko_24",
    "lat": 32.9259771,
    "lon": 35.0882517,
    "name": "מקלט - הנשר 1",
    "address": "הנשר 1, עכו",
    "city": "עכו",
    "capacity": "",
    "type": "מקלט ציבורי",
    "source": "gov",
    "category": "public",
    "addressEn": "Ha-Nesher St 1, Acre, Israel",
    "neighborhood": "יהושפט"
  },
  {
    "id": "akko_25",
    "lat": 32.9288397,
    "lon": 35.0911392,
    "name": "מקלט - קדושי קהיר 16",
    "address": "קדושי קהיר 16, עכו",
    "city": "עכו",
    "capacity": "",
    "type": "מקלט ציבורי",
    "source": "gov",
    "category": "public",
    "addressEn": "Kdoshei Kahir St 16, Acre, Israel",
    "neighborhood": "יהושפט"
  },
  {
    "id": "akko_26",
    "lat": 32.9294291,
    "lon": 35.0909321,
    "name": "מקלט - קדושי קהיר 20",
    "address": "קדושי קהיר 20, עכו",
    "city": "עכו",
    "capacity": "",
    "type": "מקלט ציבורי",
    "source": "gov",
    "category": "public",
    "addressEn": "Kdoshei Kahir St 20, Acre, Israel",
    "neighborhood": "יהושפט"
  },
  {
    "id": "akko_27",
    "lat": 32.9355277,
    "lon": 35.0918249,
    "name": "מקלט - אחד העם 17",
    "address": "אחד העם 17, עכו",
    "city": "עכו",
    "capacity": "",
    "type": "מקלט ציבורי",
    "source": "gov",
    "category": "public",
    "addressEn": "Akhad ha-Am St 17, Acre, Israel",
    "neighborhood": "יהושפט"
  },
  {
    "id": "akko_28",
    "lat": 32.9373763,
    "lon": 35.0946088,
    "name": "מקלט - בורוכוב 16",
    "address": "בורוכוב 16, עכו",
    "city": "עכו",
    "capacity": "",
    "type": "מקלט ציבורי",
    "source": "gov",
    "category": "public",
    "addressEn": "Borochov St 16, Acre, Israel",
    "neighborhood": "יהושפט"
  },
  {
    "id": "akko_29",
    "lat": 32.9374784,
    "lon": 35.0944554,
    "name": "מקלט - בורוכוב 17",
    "address": "בורוכוב 17, עכו",
    "city": "עכו",
    "capacity": "",
    "type": "מקלט ציבורי",
    "source": "gov",
    "category": "public",
    "addressEn": "Borochov St 17, Acre, Israel",
    "neighborhood": "יהושפט"
  },
  {
    "id": "akko_30",
    "lat": 32.9380483,
    "lon": 35.0924657,
    "name": "מקלט - בבל 32",
    "address": "בבל 32, עכו",
    "city": "עכו",
    "capacity": "",
    "type": "מקלט ציבורי",
    "source": "gov",
    "category": "public",
    "addressEn": "Bavel St 32, Acre, Israel",
    "neighborhood": "יהושפט"
  },
  {
    "id": "akko_31",
    "lat": 32.9355622,
    "lon": 35.0948678,
    "name": "מקלט - קדושי השואה 3",
    "address": "קדושי השואה 3, עכו",
    "city": "עכו",
    "capacity": "",
    "type": "מקלט ציבורי",
    "source": "gov",
    "category": "public",
    "addressEn": "Kdoshei ha-Sho'a St 3, Acre, Israel",
    "neighborhood": "יהושפט"
  },
  {
    "id": "akko_32",
    "lat": 32.936721,
    "lon": 35.093317,
    "name": "מקלט - בבל 11",
    "address": "בבל 11, עכו",
    "city": "עכו",
    "capacity": "",
    "type": "מקלט ציבורי",
    "source": "gov",
    "category": "public",
    "addressEn": "Bavel St 11, Acre, Israel",
    "neighborhood": "יהושפט"
  },
  {
    "id": "akko_33",
    "lat": 32.9323081,
    "lon": 35.0947844,
    "name": "מקלט - יצחק שדה 2",
    "address": "יצחק שדה 2, עכו",
    "city": "עכו",
    "capacity": "",
    "type": "מקלט ציבורי",
    "source": "gov",
    "category": "public",
    "addressEn": "Yitskhak Sadeh St 2, Acre, Israel",
    "neighborhood": "יהושפט"
  },
  {
    "id": "akko_34",
    "lat": 32.931296,
    "lon": 35.0940537,
    "name": "מקלט - יקותיאל אדם 4",
    "address": "יקותיאל אדם 4, עכו",
    "city": "עכו",
    "capacity": "",
    "type": "מקלט ציבורי",
    "source": "gov",
    "category": "public",
    "addressEn": "Yekutiel Adam St 4, Acre, Israel",
    "neighborhood": "יהושפט"
  },
  {
    "id": "akko_35",
    "lat": 32.9311292,
    "lon": 35.0944742,
    "name": "מקלט - חיים לסקוב 5",
    "address": "חיים לסקוב 5, עכו",
    "city": "עכו",
    "capacity": "",
    "type": "מקלט ציבורי",
    "source": "gov",
    "category": "public",
    "addressEn": "Haim Laskov St 5, Acre, Israel",
    "neighborhood": "יהושפט"
  },
  {
    "id": "akko_36",
    "lat": 32.9312937,
    "lon": 35.09447650000001,
    "name": "מקלט - חיים לסקוב 14",
    "address": "חיים לסקוב 14, עכו",
    "city": "עכו",
    "capacity": "",
    "type": "מקלט ציבורי",
    "source": "gov",
    "category": "public",
    "addressEn": "Haim Laskov St 14, Acre, Israel",
    "neighborhood": "יהושפט"
  },
  {
    "id": "akko_37",
    "lat": 32.9283244,
    "lon": 35.0949939,
    "name": "מקלט - הנדיב 1",
    "address": "הנדיב 1, עכו",
    "city": "עכו",
    "capacity": "",
    "type": "מקלט ציבורי",
    "source": "gov",
    "category": "public",
    "addressEn": "Ha-Nadiv St 1, Acre, Israel",
    "neighborhood": "יהושפט"
  },
  {
    "id": "akko_38",
    "lat": 32.9243471,
    "lon": 35.0940498,
    "name": "מקלט - בילו 16",
    "address": "בילו 16, עכו",
    "city": "עכו",
    "capacity": "",
    "type": "מקלט ציבורי",
    "source": "gov",
    "category": "public",
    "addressEn": "Bilu St 16, Acre, Israel",
    "neighborhood": "יהושפט"
  },
  {
    "id": "akko_39",
    "lat": 32.923851,
    "lon": 35.0928802,
    "name": "מקלט - הס 5",
    "address": "הס 5, עכו",
    "city": "עכו",
    "capacity": "",
    "type": "מקלט ציבורי",
    "source": "gov",
    "category": "public",
    "addressEn": "Moshe Hess St 5, Acre, Israel",
    "neighborhood": "יהושפט"
  },
  {
    "id": "akko_40",
    "lat": 32.9233586,
    "lon": 35.0912911,
    "name": "מקלט - פלמ\"ח 1",
    "address": "פלמ\"ח 1, עכו",
    "city": "עכו",
    "capacity": "",
    "type": "מקלט ציבורי",
    "source": "gov",
    "category": "public",
    "addressEn": "Ha-Palmakh St 1, Acre, Israel",
    "neighborhood": "יהושפט"
  },
  {
    "id": "akko_41",
    "lat": 32.92443799999999,
    "lon": 35.091051,
    "name": "מקלט - הברק 1",
    "address": "הברק 1, עכו",
    "city": "עכו",
    "capacity": "",
    "type": "מקלט ציבורי",
    "source": "gov",
    "category": "public",
    "addressEn": "HaBarak St 1, Acre, Israel",
    "neighborhood": "יהושפט"
  },
  {
    "id": "akko_44",
    "lat": 32.9284883,
    "lon": 35.0767355,
    "name": "מקלט - העצמאות 19",
    "address": "העצמאות 19, עכו",
    "city": "עכו",
    "capacity": "",
    "type": "מקלט ציבורי",
    "source": "gov",
    "category": "public",
    "addressEn": "HaAtsmaut St 19, Acre, Israel",
    "neighborhood": ""
  },
  {
    "id": "akko_45",
    "lat": 32.9249876,
    "lon": 35.0883044,
    "name": "מקלט - שביל היערה 5",
    "address": "שביל היערה 5, עכו",
    "city": "עכו",
    "capacity": "",
    "type": "מקלט ציבורי",
    "source": "gov",
    "category": "public",
    "addressEn": "Ha-Ya'ara St 5, Acre, Israel",
    "neighborhood": ""
  },
  {
    "id": "akko_46",
    "lat": 32.9253654,
    "lon": 35.0718803,
    "name": "מקלט - שלמה בן יוסף 16",
    "address": "שלמה בן יוסף 16, עכו",
    "city": "עכו",
    "capacity": "",
    "type": "מקלט ציבורי",
    "source": "gov",
    "category": "public",
    "addressEn": "Shlomo Ben Yosef St 16, Acre, Israel",
    "neighborhood": ""
  },
  {
    "id": "akko_47",
    "lat": 32.9293699,
    "lon": 35.0909962,
    "name": "מקלט - קדושי קהיר 18",
    "address": "קדושי קהיר 18, עכו",
    "city": "עכו",
    "capacity": "",
    "type": "מקלט ציבורי",
    "source": "gov",
    "category": "public",
    "addressEn": "Kdoshei Kahir St 18, Acre, Israel",
    "neighborhood": ""
  },
  {
    "id": "akko_acc_34",
    "lat": 32.9382366,
    "lon": 35.0939792,
    "name": "מקלט 34 (נגיש)",
    "address": "בורוכוב 24, עכו",
    "city": "עכו",
    "capacity": "",
    "type": "מקלט ציבורי",
    "source": "gov",
    "category": "public",
    "addressEn": "Borochov St 24, Acre, Israel",
    "neighborhood": "יהושפט"
  },
  {
    "id": "akko_acc_31",
    "lat": 32.9306141,
    "lon": 35.0944259,
    "name": "מקלט 31 (נגיש)",
    "address": "רמב\"ם 20, עכו",
    "city": "עכו",
    "capacity": "",
    "type": "מקלט ציבורי",
    "source": "gov",
    "category": "public",
    "addressEn": "HaRambam St 20, Acre, Israel",
    "neighborhood": ""
  },
  {
    "id": "akko_acc_9",
    "lat": 32.9303429,
    "lon": 35.0767395,
    "name": "מקלט 9 (נגיש)",
    "address": "גיבורי סיני 28, עכו",
    "city": "עכו",
    "capacity": "",
    "type": "מקלט ציבורי",
    "source": "gov",
    "category": "public",
    "addressEn": "Giborei Sinai St 28, Acre, Israel",
    "neighborhood": "שני אליהו"
  },
  {
    "id": "akko_acc_46",
    "lat": 32.925043,
    "lon": 35.090509,
    "name": "מקלט 46 (נגיש)",
    "address": "הפלמ\"ח, עכו",
    "city": "עכו",
    "capacity": "",
    "type": "מקלט ציבורי",
    "source": "gov",
    "category": "public",
    "addressEn": "Ha-Palmakh St, Acre, Israel",
    "neighborhood": "יהושפט"
  }
]