[
  {
    "id": "ערד-1",
    "lat": 31.2528594,
    "lon": 35.1993851,
    "name": "מקלט 1",
    "address": "אפיק 16",
    "city": "ערד",
    "neighborhood": "גבים",
    "type": "מקלט ציבורי",
    "source": "gov",
    "category": "public",
    "addressEn": "אפיק 16, ערד, ישראל"
  },
  {
    "id": "ערד-2",
    "lat": 31.2550795,
    "lon": 35.1999827,
    "name": "מקלט 2",
    "address": "אפיק 2",
    "city": "ערד",
    "neighborhood": "גבים",
    "type": "מקלט ציבורי",
    "source": "gov",
    "category": "public",
    "addressEn": "אפיק 2, ערד, ישראל"
  },
  {
    "id": "ערד-3",
    "lat": 31.2526576,
    "lon": 35.1990547,
    "name": "מקלט 3",
    "address": "אפיק 26",
    "city": "ערד",
    "neighborhood": "גבים",
    "type": "מקלט ציבורי",
    "source": "gov",
    "category": "public",
    "addressEn": "אפיק 26, ערד, ישראל"
  },
  {
    "id": "ערד-4",
    "lat": 31.25257109999999,
    "lon": 35.1973964,
    "name": "מקלט 4",
    "address": "אפיק 42",
    "city": "ערד",
    "neighborhood": "גבים",
    "type": "מקלט ציבורי",
    "source": "gov",
    "category": "public",
    "addressEn": "אפיק 42, ערד, ישראל"
  },
  {
    "id": "ערד-5",
    "lat": 31.2523712,
    "lon": 35.2006506,
    "name": "מקלט 5",
    "address": "אשד 25",
    "city": "ערד",
    "neighborhood": "גבים",
    "type": "מקלט ציבורי",
    "source": "gov",
    "category": "public",
    "addressEn": "אשד 25, ערד, ישראל"
  },
  {
    "id": "ערד-6",
    "lat": 31.2516361,
    "lon": 35.197462,
    "name": "מקלט 6",
    "address": "הבשור 2",
    "city": "ערד",
    "neighborhood": "גבים",
    "type": "מקלט ציבורי",
    "source": "gov",
    "category": "public",
    "addressEn": "בשור 2, ערד, ישראל"
  },
  {
    "id": "ערד-7",
    "lat": 31.2515817,
    "lon": 35.1996307,
    "name": "מקלט 7",
    "address": "יובל 40",
    "city": "ערד",
    "neighborhood": "גבים",
    "type": "מקלט ציבורי",
    "source": "gov",
    "category": "public",
    "addressEn": "יובל 40, ערד, ישראל"
  },
  {
    "id": "ערד-8",
    "lat": 31.2501935,
    "lon": 35.1988141,
    "name": "מקלט 8",
    "address": "נחל 15",
    "city": "ערד",
    "neighborhood": "גבים",
    "type": "מקלט ציבורי",
    "source": "gov",
    "category": "public",
    "addressEn": "נחל 15, ערד, ישראל"
  },
  {
    "id": "ערד-9",
    "lat": 31.2501707,
    "lon": 35.1982916,
    "name": "מקלט 9",
    "address": "נחל 66",
    "city": "ערד",
    "neighborhood": "גבים",
    "type": "מקלט ציבורי",
    "source": "gov",
    "category": "public",
    "addressEn": "נחל 66, ערד, ישראל"
  },
  {
    "id": "ערד-10",
    "lat": 31.2524844,
    "lon": 35.202396,
    "name": "מקלט 10",
    "address": "פלג 13",
    "city": "ערד",
    "neighborhood": "גבים",
    "type": "מקלט ציבורי",
    "source": "gov",
    "category": "public",
    "addressEn": "פלג 13, ערד, ישראל"
  },
  {
    "id": "ערד-11",
    "lat": 31.2509931,
    "lon": 35.2016201,
    "name": "מקלט 11",
    "address": "פלג 22",
    "city": "ערד",
    "neighborhood": "גבים",
    "type": "מקלט ציבורי",
    "source": "gov",
    "category": "public",
    "addressEn": "פלג 22, ערד, ישראל"
  },
  {
    "id": "ערד-12",
    "lat": 31.2504484,
    "lon": 35.2001491,
    "name": "מקלט 12",
    "address": "פלג 32",
    "city": "ערד",
    "neighborhood": "גבים",
    "type": "מקלט ציבורי",
    "source": "gov",
    "category": "public",
    "addressEn": "פלג 32, ערד, ישראל"
  },
  {
    "id": "ערד-13",
    "lat": 31.261528,
    "lon": 35.2284235,
    "name": "מקלט 13",
    "address": "לשם 5",
    "city": "ערד",
    "neighborhood": "רותם",
    "type": "מקלט ציבורי",
    "source": "gov",
    "category": "public",
    "addressEn": "לשם 5, ערד, ישראל"
  },
  {
    "id": "ערד-14",
    "lat": 31.259154,
    "lon": 35.206856,
    "name": "מקלט 14",
    "address": "הקנאים 35",
    "city": "ערד",
    "neighborhood": "טלים",
    "type": "מקלט ציבורי",
    "source": "gov",
    "category": "public",
    "addressEn": "הקנאים 35, ערד, ישראל"
  },
  {
    "id": "ערד-15",
    "lat": 31.258913,
    "lon": 35.206346,
    "name": "מקלט 15",
    "address": "קנאים 39",
    "city": "ערד",
    "neighborhood": "טלים",
    "type": "מקלט ציבורי",
    "source": "gov",
    "category": "public",
    "addressEn": "הקנאים 39, ערד, ישראל"
  },
  {
    "id": "ערד-16",
    "lat": 31.258913,
    "lon": 35.206346,
    "name": "מקלט 16",
    "address": "קנאים 39",
    "city": "ערד",
    "neighborhood": "טלים",
    "type": "מקלט ציבורי",
    "source": "gov",
    "category": "public",
    "addressEn": "הקנאים 39, ערד, ישראל"
  },
  {
    "id": "ערד-17",
    "lat": 31.259399,
    "lon": 35.2123379,
    "name": "מקלט 17",
    "address": "בן יאיר 21",
    "city": "ערד",
    "neighborhood": "יעלים",
    "type": "מקלט ציבורי",
    "source": "gov",
    "category": "public",
    "addressEn": "אלעזר בן יאיר 21, ערד, ישראל"
  },
  {
    "id": "ערד-18",
    "lat": 31.2597953,
    "lon": 35.2151388,
    "name": "מקלט 18",
    "address": "חן 3",
    "city": "ערד",
    "neighborhood": "יעלים",
    "type": "מקלט ציבורי",
    "source": "gov",
    "category": "public",
    "addressEn": "חן 3, ערד, ישראל"
  },
  {
    "id": "ערד-19",
    "lat": 31.25967469999999,
    "lon": 35.2147696,
    "name": "מקלט 19",
    "address": "חן 8",
    "city": "ערד",
    "neighborhood": "יעלים",
    "type": "מקלט ציבורי",
    "source": "gov",
    "category": "public",
    "addressEn": "חן 8, ערד, ישראל"
  },
  {
    "id": "ערד-20",
    "lat": 31.2599679,
    "lon": 35.2195458,
    "name": "מקלט 20",
    "address": "הגלעד 20",
    "city": "ערד",
    "neighborhood": "חצבים",
    "type": "מקלט ציבורי",
    "source": "gov",
    "category": "public",
    "addressEn": "הגלעד 20, ערד, ישראל"
  },
  {
    "id": "ערד-21",
    "lat": 31.2561646,
    "lon": 35.2153621,
    "name": "מקלט 21",
    "address": "פלמ\"ח 19",
    "city": "ערד",
    "neighborhood": "נעורים",
    "type": "מקלט ציבורי",
    "source": "gov",
    "category": "public",
    "addressEn": "פלמ\"ח 19, ערד, ישראל"
  },
  {
    "id": "ערד-22",
    "lat": 31.2503015,
    "lon": 35.2199386,
    "name": "מקלט 22",
    "address": "הדס 6",
    "city": "ערד",
    "neighborhood": "נעורים",
    "type": "מקלט ציבורי",
    "source": "gov",
    "category": "public",
    "addressEn": "הדס 6, ערד, ישראל"
  },
  {
    "id": "ערד-23",
    "lat": 31.25376069999999,
    "lon": 35.2173388,
    "name": "מקלט 23",
    "address": "הצבי 19",
    "city": "ערד",
    "neighborhood": "נעורים",
    "type": "מקלט ציבורי",
    "source": "gov",
    "category": "public",
    "addressEn": "צבי 19, ערד, ישראל"
  },
  {
    "id": "ערד-24",
    "lat": 31.2534395,
    "lon": 35.2156686,
    "name": "מקלט 24",
    "address": "הצבי 5",
    "city": "ערד",
    "neighborhood": "נעורים",
    "type": "מקלט ציבורי",
    "source": "gov",
    "category": "public",
    "addressEn": "צבי 5, ערד, ישראל"
  },
  {
    "id": "ערד-25",
    "lat": 31.2510477,
    "lon": 35.2211504,
    "name": "מקלט 25",
    "address": "מזרח 13",
    "city": "ערד",
    "neighborhood": "נעורים",
    "type": "מקלט ציבורי",
    "source": "gov",
    "category": "public",
    "addressEn": "מזרח 13, ערד, ישראל"
  },
  {
    "id": "ערד-26",
    "lat": 31.2513175,
    "lon": 35.2199525,
    "name": "מקלט 26",
    "address": "מזרח 6",
    "city": "ערד",
    "neighborhood": "נעורים",
    "type": "מקלט ציבורי",
    "source": "gov",
    "category": "public",
    "addressEn": "מזרח 6, ערד, ישראל"
  },
  {
    "id": "ערד-27",
    "lat": 31.2498433,
    "lon": 35.2207805,
    "name": "מקלט 27",
    "address": "נגה 9",
    "city": "ערד",
    "neighborhood": "נעורים",
    "type": "מקלט ציבורי",
    "source": "gov",
    "category": "public",
    "addressEn": "נוגה 9, ערד, ישראל"
  },
  {
    "id": "ערד-28",
    "lat": 31.2509897,
    "lon": 35.2163637,
    "name": "מקלט 28",
    "address": "נורית 14",
    "city": "ערד",
    "neighborhood": "נעורים",
    "type": "מקלט ציבורי",
    "source": "gov",
    "category": "public",
    "addressEn": "נורית 14, ערד, ישראל"
  },
  {
    "id": "ערד-29",
    "lat": 31.2513301,
    "lon": 35.2161298,
    "name": "מקלט 29",
    "address": "נורית 8",
    "city": "ערד",
    "neighborhood": "נעורים",
    "type": "מקלט ציבורי",
    "source": "gov",
    "category": "public",
    "addressEn": "נורית 8, ערד, ישראל"
  },
  {
    "id": "ערד-30",
    "lat": 31.2530314,
    "lon": 35.2166461,
    "name": "מקלט 30",
    "address": "ערבה 10",
    "city": "ערד",
    "neighborhood": "נעורים",
    "type": "מקלט ציבורי",
    "source": "gov",
    "category": "public",
    "addressEn": "הערבה 10, ערד, ישראל"
  },
  {
    "id": "ערד-31",
    "lat": 31.2524723,
    "lon": 35.2172142,
    "name": "מקלט 31",
    "address": "ערבה 15",
    "city": "ערד",
    "neighborhood": "נעורים",
    "type": "מקלט ציבורי",
    "source": "gov",
    "category": "public",
    "addressEn": "הערבה 15, ערד, ישראל"
  },
  {
    "id": "ערד-32",
    "lat": 31.2493265,
    "lon": 35.2186598,
    "name": "מקלט 32",
    "address": "ערבה 38",
    "city": "ערד",
    "neighborhood": "נעורים",
    "type": "מקלט ציבורי",
    "source": "gov",
    "category": "public",
    "addressEn": "הערבה 38, ערד, ישראל"
  },
  {
    "id": "ערד-33",
    "lat": 31.2530557,
    "lon": 35.2148199,
    "name": "מקלט 33",
    "address": "פלמ\"ח 40",
    "city": "ערד",
    "neighborhood": "נעורים",
    "type": "מקלט ציבורי",
    "source": "gov",
    "category": "public",
    "addressEn": "פלמ\"ח 40, ערד, ישראל"
  },
  {
    "id": "ערד-34",
    "lat": 31.2520591,
    "lon": 35.2150899,
    "name": "מקלט 34",
    "address": "פלמ\"ח 50",
    "city": "ערד",
    "neighborhood": "נעורים",
    "type": "מקלט ציבורי",
    "source": "gov",
    "category": "public",
    "addressEn": "פלמ\"ח 50, ערד, ישראל"
  },
  {
    "id": "ערד-35",
    "lat": 31.2658444,
    "lon": 35.2140787,
    "name": "מקלט 36",
    "address": "אגמית 10",
    "city": "ערד",
    "neighborhood": "מעוף",
    "type": "מקלט ציבורי",
    "source": "gov",
    "category": "public",
    "addressEn": "אגמית 10, ערד, ישראל"
  },
  {
    "id": "ערד-36",
    "lat": 31.2657437,
    "lon": 35.2123206,
    "name": "מקלט 37",
    "address": "אגמית 26",
    "city": "ערד",
    "neighborhood": "מעוף",
    "type": "מקלט ציבורי",
    "source": "gov",
    "category": "public",
    "addressEn": "אגמית 26, ערד, ישראל"
  },
  {
    "id": "ערד-37",
    "lat": 31.266721,
    "lon": 35.2161563,
    "name": "מקלט 38",
    "address": "אנקור 1",
    "city": "ערד",
    "neighborhood": "מעוף",
    "type": "מקלט ציבורי",
    "source": "gov",
    "category": "public",
    "addressEn": "אנקור 1, ערד, ישראל"
  },
  {
    "id": "ערד-38",
    "lat": 31.269455,
    "lon": 35.2132408,
    "name": "מקלט 39",
    "address": "עיט 13",
    "city": "ערד",
    "neighborhood": "מעוף",
    "type": "מקלט ציבורי",
    "source": "gov",
    "category": "public",
    "addressEn": "עיט 13, ערד, ישראל"
  },
  {
    "id": "ערד-39",
    "lat": 31.2704991,
    "lon": 35.2126938,
    "name": "מקלט 40",
    "address": "דוכיפת 25",
    "city": "ערד",
    "neighborhood": "מעוף",
    "type": "מקלט ציבורי",
    "source": "gov",
    "category": "public",
    "addressEn": "דוכיפת 25, ערד, ישראל"
  },
  {
    "id": "ערד-40",
    "lat": 31.2715297,
    "lon": 35.2115982,
    "name": "מקלט 41",
    "address": "דוכיפת 37",
    "city": "ערד",
    "neighborhood": "מעוף",
    "type": "מקלט ציבורי",
    "source": "gov",
    "category": "public",
    "addressEn": "דוכיפת 37, ערד, ישראל"
  },
  {
    "id": "ערד-41",
    "lat": 31.2709111,
    "lon": 35.2112497,
    "name": "מקלט 42",
    "address": "דוכיפת 42",
    "city": "ערד",
    "neighborhood": "מעוף",
    "type": "מקלט ציבורי",
    "source": "gov",
    "category": "public",
    "addressEn": "דוכיפת 42, ערד, ישראל"
  },
  {
    "id": "ערד-42",
    "lat": 31.2701124,
    "lon": 35.212835,
    "name": "מקלט 43",
    "address": "דוכיפת 61",
    "city": "ערד",
    "neighborhood": "מעוף",
    "type": "מקלט ציבורי",
    "source": "gov",
    "category": "public",
    "addressEn": "דוכיפת 61, ערד, ישראל"
  },
  {
    "id": "ערד-43",
    "lat": 31.2647572,
    "lon": 35.2156439,
    "name": "מקלט 44",
    "address": "זמיר 3",
    "city": "ערד",
    "neighborhood": "מעוף",
    "type": "מקלט ציבורי",
    "source": "gov",
    "category": "public",
    "addressEn": "זמיר 3, ערד, ישראל"
  },
  {
    "id": "ערד-44",
    "lat": 31.2672217,
    "lon": 35.2133328,
    "name": "מקלט 45",
    "address": "זמיר 40",
    "city": "ערד",
    "neighborhood": "מעוף",
    "type": "מקלט ציבורי",
    "source": "gov",
    "category": "public",
    "addressEn": "זמיר 40, ערד, ישראל"
  },
  {
    "id": "ערד-45",
    "lat": 31.2672143,
    "lon": 35.2131314,
    "name": "מקלט 46",
    "address": "זמיר 42",
    "city": "ערד",
    "neighborhood": "מעוף",
    "type": "מקלט ציבורי",
    "source": "gov",
    "category": "public",
    "addressEn": "זמיר 42, ערד, ישראל"
  },
  {
    "id": "ערד-46",
    "lat": 31.2721777,
    "lon": 35.2105985,
    "name": "מקלט 47",
    "address": "לילית 6",
    "city": "ערד",
    "neighborhood": "מעוף",
    "type": "מקלט ציבורי",
    "source": "gov",
    "category": "public",
    "addressEn": "לילית 6, ערד, ישראל"
  },
  {
    "id": "ערד-47",
    "lat": 31.2722234,
    "lon": 35.2106425,
    "name": "מקלט 48",
    "address": "עגור 5",
    "city": "ערד",
    "neighborhood": "מעוף",
    "type": "מקלט ציבורי",
    "source": "gov",
    "category": "public",
    "addressEn": "עגור 5, ערד, ישראל"
  }
]