[
  {
    "id": "atlit_2",
    "lat": 32.6982022,
    "lon": 34.9457915,
    "name": "מקלט 2",
    "address": "סמטת אלמוג 8, עתלית",
    "city": "עתלית",
    "capacity": "",
    "type": "מקלט ציבורי",
    "source": "gov",
    "category": "public",
    "addressEn": "Almog ha-Khoresh St 8, Atlit, Israel"
  },
  {
    "id": "atlit_3",
    "lat": 32.6979532,
    "lon": 34.9454625,
    "name": "מקלט 3",
    "address": "סמטת אלמוג 4, עתלית",
    "city": "עתלית",
    "capacity": "",
    "type": "מקלט ציבורי",
    "source": "gov",
    "category": "public",
    "addressEn": "Almog ha-Khoresh St 4, Atlit, Israel"
  },
  {
    "id": "atlit_7",
    "lat": 32.68151,
    "lon": 34.9414142,
    "name": "מקלט 7",
    "address": "הארז 5, עתלית",
    "city": "עתלית",
    "capacity": "",
    "type": "מקלט ציבורי",
    "source": "gov",
    "category": "public",
    "addressEn": "Simtat ha-Erez 5, Atlit, Israel"
  },
  {
    "id": "atlit_9",
    "lat": 32.6814438,
    "lon": 34.940076,
    "name": "מקלט 9",
    "address": "הארגמן 34, עתלית",
    "city": "עתלית",
    "capacity": "",
    "type": "מקלט ציבורי",
    "source": "gov",
    "category": "public",
    "addressEn": "Ha-Argaman St, Atlit, Israel"
  },
  {
    "id": "atlit_10",
    "lat": 32.6814438,
    "lon": 34.940076,
    "name": "מקלט 10",
    "address": "הארגמן 20, עתלית",
    "city": "עתלית",
    "capacity": "",
    "type": "מקלט ציבורי",
    "source": "gov",
    "category": "public",
    "addressEn": "Ha-Argaman St, Atlit, Israel"
  },
  {
    "id": "atlit_11",
    "lat": 32.6814438,
    "lon": 34.940076,
    "name": "מקלט 11",
    "address": "הארגמן 10, עתלית",
    "city": "עתלית",
    "capacity": "",
    "type": "מקלט ציבורי",
    "source": "gov",
    "category": "public",
    "addressEn": "Ha-Argaman St, Atlit, Israel"
  },
  {
    "id": "atlit_12",
    "lat": 32.6813799,
    "lon": 34.9404278,
    "name": "מקלט 12",
    "address": "הדקל 12, עתלית",
    "city": "עתלית",
    "capacity": "",
    "type": "מקלט ציבורי",
    "source": "gov",
    "category": "public",
    "addressEn": "HaDekel St 12, Atlit, Israel"
  },
  {
    "id": "atlit_13",
    "lat": 32.681256,
    "lon": 34.9405863,
    "name": "מקלט 13",
    "address": "הדקל 6, עתלית",
    "city": "עתלית",
    "capacity": "",
    "type": "מקלט ציבורי",
    "source": "gov",
    "category": "public",
    "addressEn": "HaDekel St 6, Atlit, Israel"
  },
  {
    "id": "atlit_14",
    "lat": 32.6814472,
    "lon": 34.9390412,
    "name": "מקלט 14",
    "address": "מחתרות 101, עתלית",
    "city": "עתלית",
    "capacity": "",
    "type": "מקלט ציבורי",
    "source": "gov",
    "category": "public",
    "addressEn": "Ha-Makhtarot St 101, Atlit, Israel"
  },
  {
    "id": "atlit_16",
    "lat": 32.682516,
    "lon": 34.938703,
    "name": "מקלט 16",
    "address": "מחתרות 1, עתלית",
    "city": "עתלית",
    "capacity": "",
    "type": "מקלט ציבורי",
    "source": "gov",
    "category": "public",
    "addressEn": "Ha-Makhtarot St 1, Atlit, Israel"
  },
  {
    "id": "atlit_18",
    "lat": 32.6904939,
    "lon": 34.9376915,
    "name": "מקלט 18",
    "address": "הנרקיסים 89, עתלית",
    "city": "עתלית",
    "capacity": "",
    "type": "מקלט ציבורי",
    "source": "gov",
    "category": "public",
    "addressEn": "Ha-Narkisim St 89, Atlit, Israel"
  },
  {
    "id": "atlit_15",
    "lat": 32.6841535,
    "lon": 34.9399205,
    "name": "מקלט 15",
    "address": "הבנים, עתלית",
    "city": "עתלית",
    "capacity": "",
    "type": "מקלט ציבורי",
    "source": "gov",
    "category": "public",
    "addressEn": "HaBanim St, Atlit, Israel"
  },
  {
    "id": "atlit_17",
    "lat": 32.691335,
    "lon": 34.940421,
    "name": "מקלט 17",
    "address": "ההרדוף, עתלית",
    "city": "עתלית",
    "capacity": "",
    "type": "מקלט ציבורי",
    "source": "gov",
    "category": "public",
    "addressEn": "HaHarduf St, Atlit, Israel"
  },
  {
    "id": "atlit_24",
    "lat": 32.6959558,
    "lon": 34.945869,
    "name": "מקלט 24",
    "address": "דרך הים, עתלית",
    "city": "עתלית",
    "capacity": "",
    "type": "מקלט ציבורי",
    "source": "gov",
    "category": "public",
    "addressEn": "HaYam Road, Atlit, Israel"
  },
  {
    "id": "atlit_25",
    "lat": 32.6959558,
    "lon": 34.945869,
    "name": "מקלט 25",
    "address": "דרך הים, עתלית",
    "city": "עתלית",
    "capacity": "",
    "type": "מקלט ציבורי",
    "source": "gov",
    "category": "public",
    "addressEn": "HaYam Road, Atlit, Israel"
  },
  {
    "id": "atlit_26",
    "lat": 32.6959558,
    "lon": 34.945869,
    "name": "מקלט 26",
    "address": "דרך הים, עתלית",
    "city": "עתלית",
    "capacity": "",
    "type": "מקלט ציבורי",
    "source": "gov",
    "category": "public",
    "addressEn": "HaYam Road, Atlit, Israel"
  },
  {
    "id": "atlit_27",
    "lat": 32.6959558,
    "lon": 34.945869,
    "name": "מקלט 27",
    "address": "דרך הים, עתלית",
    "city": "עתלית",
    "capacity": "",
    "type": "מקלט ציבורי",
    "source": "gov",
    "category": "public",
    "addressEn": "HaYam Road, Atlit, Israel"
  },
  {
    "id": "atlit_28",
    "lat": 32.6959558,
    "lon": 34.945869,
    "name": "מקלט 28",
    "address": "דרך הים, עתלית",
    "city": "עתלית",
    "capacity": "",
    "type": "מקלט ציבורי",
    "source": "gov",
    "category": "public",
    "addressEn": "HaYam Road, Atlit, Israel"
  },
  {
    "id": "atlit_29",
    "lat": 32.6959558,
    "lon": 34.945869,
    "name": "מקלט 29",
    "address": "דרך הים, עתלית",
    "city": "עתלית",
    "capacity": "",
    "type": "מקלט ציבורי",
    "source": "gov",
    "category": "public",
    "addressEn": "HaYam Road, Atlit, Israel"
  }
]