[
  {
    "id": "בת ים-1",
    "lat": 32.0142166,
    "lon": 34.7498315,
    "name": "המיישר",
    "address": "אורט ישראל 4",
    "city": "בת ים",
    "neighborhood": "",
    "type": "מקלט ציבורי",
    "source": "gov",
    "category": "public"
  },
  {
    "id": "בת ים-2",
    "lat": 32.0295724,
    "lon": 34.7541484,
    "name": "קדושי לוצק",
    "address": "קדושי לוצק 18",
    "city": "בת ים",
    "neighborhood": "",
    "type": "מקלט ציבורי",
    "source": "gov",
    "category": "public"
  },
  {
    "id": "בת ים-3",
    "lat": 32.0289066,
    "lon": 34.751979,
    "name": "נגבה",
    "address": "נגבה 13",
    "city": "בת ים",
    "neighborhood": "",
    "type": "מקלט ציבורי",
    "source": "gov",
    "category": "public"
  },
  {
    "id": "בת ים-4",
    "lat": 32.0274276,
    "lon": 34.7543857,
    "name": "השלושה 18",
    "address": "השלושה 18",
    "city": "בת ים",
    "neighborhood": "",
    "type": "מקלט ציבורי",
    "source": "gov",
    "category": "public"
  },
  {
    "id": "בת ים-5",
    "lat": 32.0301394,
    "lon": 34.7583584,
    "name": "השלושה 52",
    "address": "השלושה 52",
    "city": "בת ים",
    "neighborhood": "",
    "type": "מקלט ציבורי",
    "source": "gov",
    "category": "public"
  },
  {
    "id": "בת ים-6",
    "lat": 32.0310211,
    "lon": 34.7568932,
    "name": "הגיבורים",
    "address": "הגיבורים 40",
    "city": "בת ים",
    "neighborhood": "",
    "type": "מקלט ציבורי",
    "source": "gov",
    "category": "public"
  },
  {
    "id": "בת ים-7",
    "lat": 32.0291834,
    "lon": 34.7589492,
    "name": "הצנחנים",
    "address": "הצנחנים 13",
    "city": "בת ים",
    "neighborhood": "",
    "type": "מקלט ציבורי",
    "source": "gov",
    "category": "public"
  },
  {
    "id": "בת ים-8",
    "lat": 32.0290319,
    "lon": 34.7558304,
    "name": "הפלמ\"ח",
    "address": "הפלמ\"ח 17",
    "city": "בת ים",
    "neighborhood": "",
    "type": "מקלט ציבורי",
    "source": "gov",
    "category": "public"
  },
  {
    "id": "בת ים-9",
    "lat": 32.0239993,
    "lon": 34.7572142,
    "name": "קק\"ל",
    "address": "קק\"ל 13",
    "city": "בת ים",
    "neighborhood": "",
    "type": "מקלט ציבורי",
    "source": "gov",
    "category": "public"
  },
  {
    "id": "בת ים-10",
    "lat": 32.017104,
    "lon": 34.760708,
    "name": "הנרייטה סולד",
    "address": "הנרייטה סולד 11",
    "city": "בת ים",
    "neighborhood": "",
    "type": "מקלט ציבורי",
    "source": "gov",
    "category": "public"
  },
  {
    "id": "בת ים-11",
    "lat": 32.0193481,
    "lon": 34.7454376,
    "name": "בלפור",
    "address": "בלפור 84",
    "city": "בת ים",
    "neighborhood": "",
    "type": "מקלט ציבורי",
    "source": "gov",
    "category": "public"
  },
  {
    "id": "בת ים-12",
    "lat": 32.024309,
    "lon": 34.7430346,
    "name": "הרצל",
    "address": "הרצל 52",
    "city": "בת ים",
    "neighborhood": "",
    "type": "מקלט ציבורי",
    "source": "gov",
    "category": "public"
  },
  {
    "id": "בת ים-13",
    "lat": 32.0191625,
    "lon": 34.755938,
    "name": "ישראליס",
    "address": "ישראליס 5",
    "city": "בת ים",
    "neighborhood": "",
    "type": "מקלט ציבורי",
    "source": "gov",
    "category": "public"
  },
  {
    "id": "בת ים-14",
    "lat": 32.0197254,
    "lon": 34.7558391,
    "name": "לויתן",
    "address": "לויתן 5",
    "city": "בת ים",
    "neighborhood": "",
    "type": "מקלט ציבורי",
    "source": "gov",
    "category": "public"
  },
  {
    "id": "בת ים-15",
    "lat": 32.0190512,
    "lon": 34.7525323,
    "name": "שרת",
    "address": "שרת 37",
    "city": "בת ים",
    "neighborhood": "",
    "type": "מקלט ציבורי",
    "source": "gov",
    "category": "public"
  },
  {
    "id": "בת ים-16",
    "lat": 32.019016,
    "lon": 34.7525512,
    "name": "רמז",
    "address": "רמז 7",
    "city": "בת ים",
    "neighborhood": "",
    "type": "מקלט ציבורי",
    "source": "gov",
    "category": "public"
  },
  {
    "id": "בת ים-17",
    "lat": 32.0235658,
    "lon": 34.7693233,
    "name": "דוב הוז",
    "address": "דוב הוז 4",
    "city": "בת ים",
    "neighborhood": "",
    "type": "מקלט ציבורי",
    "source": "gov",
    "category": "public"
  },
  {
    "id": "בת ים-18",
    "lat": 32.0251948,
    "lon": 34.7674045,
    "name": "מוקד עירוני",
    "address": "החשמונאים 27",
    "city": "בת ים",
    "neighborhood": "",
    "type": "מקלט ציבורי",
    "source": "gov",
    "category": "public"
  },
  {
    "id": "בת ים-19",
    "lat": 32.0151439,
    "lon": 34.752885,
    "name": "ממ\"ד צפוני",
    "address": "קרוואנים 1",
    "city": "בת ים",
    "neighborhood": "",
    "type": "מקלט ציבורי",
    "source": "gov",
    "category": "public"
  },
  {
    "id": "בת ים-20",
    "lat": 32.0151439,
    "lon": 34.752885,
    "name": "ממ\"ד אמצעי",
    "address": "קרוואנים 1",
    "city": "בת ים",
    "neighborhood": "",
    "type": "מקלט ציבורי",
    "source": "gov",
    "category": "public"
  },
  {
    "id": "בת ים-21",
    "lat": 32.0151439,
    "lon": 34.752885,
    "name": "ממ\"ד דרומי",
    "address": "קרוואנים 1",
    "city": "בת ים",
    "neighborhood": "",
    "type": "מקלט ציבורי",
    "source": "gov",
    "category": "public"
  },
  {
    "id": "בת ים-22",
    "lat": 32.0251948,
    "lon": 34.7674045,
    "name": "מבנה עירייה",
    "address": "החשמונאים 27",
    "city": "בת ים",
    "neighborhood": "",
    "type": "מקלט ציבורי",
    "source": "gov",
    "category": "public"
  },
  {
    "id": "בת ים-23",
    "lat": 32.0187269,
    "lon": 34.746671,
    "name": "ביה\"ס ציפורי",
    "address": "פנקס 2",
    "city": "בת ים",
    "neighborhood": "",
    "type": "מרחב מוגן בית ספרי",
    "source": "gov",
    "category": "school"
  },
  {
    "id": "בת ים-24",
    "lat": 32.0243263,
    "lon": 34.7490529,
    "name": "ביה\"ס נחשונים",
    "address": "הרב הרצוג 9",
    "city": "בת ים",
    "neighborhood": "",
    "type": "מרחב מוגן בית ספרי",
    "source": "gov",
    "category": "school"
  },
  {
    "id": "בת ים-25",
    "lat": 32.0207184,
    "lon": 34.7495869,
    "name": "ביה\"ס ראשונים",
    "address": "פרלשטיין 24",
    "city": "בת ים",
    "neighborhood": "",
    "type": "מרחב מוגן בית ספרי",
    "source": "gov",
    "category": "school"
  },
  {
    "id": "בת ים-26",
    "lat": 32.0297867,
    "lon": 34.7461672,
    "name": "ביה\"ס גורדון",
    "address": "רמב\"ם 11",
    "city": "בת ים",
    "neighborhood": "",
    "type": "מרחב מוגן בית ספרי",
    "source": "gov",
    "category": "school"
  },
  {
    "id": "בת ים-27",
    "lat": 32.0130327,
    "lon": 34.760271,
    "name": "ביה\"ס הנשיא",
    "address": "ליבורנו 11",
    "city": "בת ים",
    "neighborhood": "",
    "type": "מרחב מוגן בית ספרי",
    "source": "gov",
    "category": "school"
  },
  {
    "id": "בת ים-28",
    "lat": 32.0180648,
    "lon": 34.754728,
    "name": "ביה\"ס יד מרדכי",
    "address": "כצנלסון 55",
    "city": "בת ים",
    "neighborhood": "",
    "type": "מרחב מוגן בית ספרי",
    "source": "gov",
    "category": "school"
  },
  {
    "id": "בת ים-29",
    "lat": 32.0284561,
    "lon": 34.7519627,
    "name": "ביה\"ס עקיבא",
    "address": "נגבה 10",
    "city": "בת ים",
    "neighborhood": "",
    "type": "מרחב מוגן בית ספרי",
    "source": "gov",
    "category": "school"
  },
  {
    "id": "בת ים-30",
    "lat": 32.0097248,
    "lon": 34.760322,
    "name": "ביה\"ס הראל",
    "address": "כובשי החרמון 4",
    "city": "בת ים",
    "neighborhood": "",
    "type": "מרחב מוגן בית ספרי",
    "source": "gov",
    "category": "school"
  },
  {
    "id": "בת ים-31",
    "lat": 32.0187447,
    "lon": 34.7561289,
    "name": "תיכון רמת יוסף",
    "address": "הדדי",
    "city": "בת ים",
    "neighborhood": "",
    "type": "מרחב מוגן בית ספרי",
    "source": "gov",
    "category": "school"
  },
  {
    "id": "בת ים-32",
    "lat": 32.0282021,
    "lon": 34.756103,
    "name": "נתיבות רבקה",
    "address": "המעפילים 1",
    "city": "בת ים",
    "neighborhood": "",
    "type": "מרחב מוגן בית ספרי",
    "source": "gov",
    "category": "school"
  },
  {
    "id": "בת ים-33",
    "lat": 32.0255016,
    "lon": 34.7594482,
    "name": "מתנ\"ס גאולים",
    "address": "ניצנה 13",
    "city": "בת ים",
    "neighborhood": "",
    "type": "מרחב מוגן בית ספרי",
    "source": "gov",
    "category": "school"
  },
  {
    "id": "בת ים-34",
    "lat": 32.0241648,
    "lon": 34.7460675,
    "name": "בית וגן",
    "address": "הרב קוק 17",
    "city": "בת ים",
    "neighborhood": "",
    "type": "מרחב מוגן בית ספרי",
    "source": "gov",
    "category": "school"
  },
  {
    "id": "בת ים-35",
    "lat": 32.0137722,
    "lon": 34.7532399,
    "name": "חט\"ב שז\"ר",
    "address": "ניסנבאום 66",
    "city": "בת ים",
    "neighborhood": "",
    "type": "מרחב מוגן בית ספרי",
    "source": "gov",
    "category": "school"
  },
  {
    "id": "בת ים-36",
    "lat": 32.0178575,
    "lon": 34.7536823,
    "name": "שרת",
    "address": "חביבה רייך 22",
    "city": "בת ים",
    "neighborhood": "",
    "type": "מרחב מוגן בית ספרי",
    "source": "gov",
    "category": "school"
  },
  {
    "id": "בת ים-37",
    "lat": 32.0138078,
    "lon": 34.7441955,
    "name": "יצחק שדה",
    "address": "השקמה 28",
    "city": "בת ים",
    "neighborhood": "",
    "type": "מרחב מוגן בית ספרי",
    "source": "gov",
    "category": "school"
  },
  {
    "id": "בת ים-38",
    "lat": 32.0221522,
    "lon": 34.7582996,
    "name": "תפו\"ס",
    "address": "רהב 7",
    "city": "בת ים",
    "neighborhood": "",
    "type": "מרחב מוגן בית ספרי",
    "source": "gov",
    "category": "school"
  },
  {
    "id": "בת ים-39",
    "lat": 32.0062139,
    "lon": 34.7500382,
    "name": "יגאל אלון",
    "address": "ניסנבאום 22",
    "city": "בת ים",
    "neighborhood": "",
    "type": "מרחב מוגן בית ספרי",
    "source": "gov",
    "category": "school"
  },
  {
    "id": "בת ים-40",
    "lat": 32.0131326,
    "lon": 34.7400492,
    "name": "טבנקין",
    "address": "ש\"י עגנון 57",
    "city": "בת ים",
    "neighborhood": "",
    "type": "מרחב מוגן בית ספרי",
    "source": "gov",
    "category": "school"
  },
  {
    "id": "בת ים-41",
    "lat": 32.0221522,
    "lon": 34.7582996,
    "name": "מכללת בת ים",
    "address": "רהב 7",
    "city": "בת ים",
    "neighborhood": "",
    "type": "מרחב מוגן בית ספרי",
    "source": "gov",
    "category": "school"
  },
  {
    "id": "בת ים-42",
    "lat": 32.014251,
    "lon": 34.756094,
    "name": "תיכון שז\"ר",
    "address": "מוכרי הסיגריות 2",
    "city": "בת ים",
    "neighborhood": "",
    "type": "מרחב מוגן בית ספרי",
    "source": "gov",
    "category": "school"
  },
  {
    "id": "בת ים-43",
    "lat": 32.0267322,
    "lon": 34.7584659,
    "name": "החלוצים",
    "address": "החלוצים 9",
    "city": "בת ים",
    "neighborhood": "",
    "type": "מרחב מוגן בית ספרי",
    "source": "gov",
    "category": "school"
  },
  {
    "id": "בת ים-44",
    "lat": 32.01689750000001,
    "lon": 34.7603843,
    "name": "צביה",
    "address": "הנרייטה סולד 10",
    "city": "בת ים",
    "neighborhood": "",
    "type": "מרחב מוגן בית ספרי",
    "source": "gov",
    "category": "school"
  },
  {
    "id": "בת ים-45",
    "lat": 32.0230893,
    "lon": 34.7424968,
    "name": "תחכמוני",
    "address": "הרצל 58",
    "city": "בת ים",
    "neighborhood": "",
    "type": "מרחב מוגן בית ספרי",
    "source": "gov",
    "category": "school"
  },
  {
    "id": "בת ים-46",
    "lat": 32.0252831,
    "lon": 34.7552327,
    "name": "ירושלים",
    "address": "המעפילים 18",
    "city": "בת ים",
    "neighborhood": "",
    "type": "מרחב מוגן בית ספרי",
    "source": "gov",
    "category": "school"
  },
  {
    "id": "בת ים-47",
    "lat": 32.0203729,
    "lon": 34.7413699,
    "name": "דוד אלעזר",
    "address": "מסריק 25",
    "city": "בת ים",
    "neighborhood": "",
    "type": "מרחב מוגן בית ספרי",
    "source": "gov",
    "category": "school"
  },
  {
    "id": "בת ים-48",
    "lat": 32.0203729,
    "lon": 34.7413699,
    "name": "סוקולוב",
    "address": "מסריק 25",
    "city": "בת ים",
    "neighborhood": "",
    "type": "מרחב מוגן בית ספרי",
    "source": "gov",
    "category": "school"
  },
  {
    "id": "בת ים-49",
    "lat": 32.0151439,
    "lon": 34.752885,
    "name": "יעד",
    "address": "נחום ניר 25",
    "city": "בת ים",
    "neighborhood": "",
    "type": "מרחב מוגן בית ספרי",
    "source": "gov",
    "category": "school"
  },
  {
    "id": "בת ים-50",
    "lat": 32.0189633,
    "lon": 34.7536642,
    "name": "מסילות",
    "address": "חביבה רייך 32",
    "city": "בת ים",
    "neighborhood": "",
    "type": "מרחב מוגן בית ספרי",
    "source": "gov",
    "category": "school"
  },
  {
    "id": "בת ים-51",
    "lat": 32.0084244,
    "lon": 34.7441575,
    "name": "ישועות יעקב",
    "address": "האורגים 22",
    "city": "בת ים",
    "neighborhood": "",
    "type": "מרחב מוגן בית ספרי",
    "source": "gov",
    "category": "school"
  },
  {
    "id": "בת ים-52",
    "lat": 32.0307299,
    "lon": 34.7557407,
    "name": "האיש משה",
    "address": "הגיבורים 32",
    "city": "בת ים",
    "neighborhood": "",
    "type": "מרחב מוגן בית ספרי",
    "source": "gov",
    "category": "school"
  },
  {
    "id": "בת ים-53",
    "lat": 32.0314214,
    "lon": 34.7563436,
    "name": "ברנקו וייס",
    "address": "הגיבורים 33",
    "city": "בת ים",
    "neighborhood": "",
    "type": "מרחב מוגן בית ספרי",
    "source": "gov",
    "category": "school"
  },
  {
    "id": "בת ים-54",
    "lat": 32.0078783,
    "lon": 34.7578944,
    "name": "שחר",
    "address": "י.ל. פרץ 7",
    "city": "בת ים",
    "neighborhood": "",
    "type": "מרחב מוגן בית ספרי",
    "source": "gov",
    "category": "school"
  },
  {
    "id": "בת ים-55",
    "lat": 32.011318,
    "lon": 34.7450894,
    "name": "בני ציון",
    "address": "הנביאים 52",
    "city": "בת ים",
    "neighborhood": "",
    "type": "מרחב מוגן בית ספרי",
    "source": "gov",
    "category": "school"
  }
]