[
  {
    "id": "bat-yam-2",
    "lat": 32.0286903,
    "lon": 34.7544592,
    "name": "קדושי לוצק",
    "address": "קדושי לוצק 18",
    "city": "בת ים",
    "neighborhood": "",
    "type": "אשבט",
    "source": "gov",
    "category": "public"
  },
  {
    "id": "bat-yam-3",
    "lat": 32.0279481,
    "lon": 34.7513273,
    "name": "נגבה",
    "address": "נגבה 13",
    "city": "בת ים",
    "neighborhood": "",
    "type": "תת קרקעי",
    "source": "gov",
    "category": "public"
  },
  {
    "id": "bat-yam-4",
    "lat": 32.0278713,
    "lon": 34.7529984,
    "name": "השלושה 18",
    "address": "השלושה 18",
    "city": "בת ים",
    "neighborhood": "",
    "type": "דו מפלסי",
    "source": "gov",
    "category": "public"
  },
  {
    "id": "bat-yam-5",
    "lat": 32.0287664,
    "lon": 34.7577809,
    "name": "השלושה 52",
    "address": "השלושה 52",
    "city": "בת ים",
    "neighborhood": "",
    "type": "תת קרקעי",
    "source": "gov",
    "category": "public"
  },
  {
    "id": "bat-yam-6",
    "lat": 32.0304217,
    "lon": 34.7523276,
    "name": "הגיבורים",
    "address": "הגיבורים 40",
    "city": "בת ים",
    "neighborhood": "",
    "type": "אשבט",
    "source": "gov",
    "category": "public"
  },
  {
    "id": "bat-yam-7",
    "lat": 32.0297297,
    "lon": 34.758974,
    "name": "הצנחנים",
    "address": "הצנחנים 13",
    "city": "בת ים",
    "neighborhood": "",
    "type": "תת קרקעי",
    "source": "gov",
    "category": "public"
  },
  {
    "id": "bat-yam-8",
    "lat": 32.0290989,
    "lon": 34.7561567,
    "name": "הפלמ\"ח",
    "address": "הפלמ\"ח 17",
    "city": "בת ים",
    "neighborhood": "",
    "type": "תת קרקעי",
    "source": "gov",
    "category": "public"
  },
  {
    "id": "bat-yam-9",
    "lat": 32.0234573,
    "lon": 34.7561913,
    "name": "קק\"ל",
    "address": "קק\"ל 13",
    "city": "בת ים",
    "neighborhood": "",
    "type": "אשבט",
    "source": "gov",
    "category": "public"
  },
  {
    "id": "bat-yam-10",
    "lat": 32.0166917,
    "lon": 34.760546,
    "name": "הנרייטה סולד",
    "address": "הנרייטה סולד 11",
    "city": "בת ים",
    "neighborhood": "",
    "type": "תת קרקעי",
    "source": "gov",
    "category": "public"
  },
  {
    "id": "bat-yam-11",
    "lat": 32.019272,
    "lon": 34.7454023,
    "name": "בלפור",
    "address": "בלפור 84",
    "city": "בת ים",
    "neighborhood": "",
    "type": "תת קרקעי",
    "source": "gov",
    "category": "public"
  },
  {
    "id": "bat-yam-12",
    "lat": 32.0224538,
    "lon": 34.7430497,
    "name": "הרצל",
    "address": "הרצל 52",
    "city": "בת ים",
    "neighborhood": "",
    "type": "תת קרקעי",
    "source": "gov",
    "category": "public"
  },
  {
    "id": "bat-yam-14",
    "lat": 32.0197181,
    "lon": 34.7558508,
    "name": "לויתן",
    "address": "לויתן 5",
    "city": "בת ים",
    "neighborhood": "",
    "type": "תת קרקעי",
    "source": "gov",
    "category": "public"
  },
  {
    "id": "bat-yam-15",
    "lat": 32.0189239,
    "lon": 34.7526138,
    "name": "שרת",
    "address": "שרת 37",
    "city": "בת ים",
    "neighborhood": "",
    "type": "תת קרקעי",
    "source": "gov",
    "category": "public"
  },
  {
    "id": "bat-yam-16",
    "lat": 32.0190629,
    "lon": 34.7524645,
    "name": "רמז",
    "address": "רמז 7",
    "city": "בת ים",
    "neighborhood": "",
    "type": "תת קרקעי",
    "source": "gov",
    "category": "public"
  },
  {
    "id": "bat-yam-17",
    "lat": 32.0232467,
    "lon": 34.7621822,
    "name": "דוב הוז",
    "address": "דוב הוז 4",
    "city": "בת ים",
    "neighborhood": "",
    "type": "אשבט",
    "source": "gov",
    "category": "public"
  },
  {
    "id": "bat-yam-18",
    "lat": 32.0195142,
    "lon": 34.7512266,
    "name": "מוקד עירוני",
    "address": "החשמונאים 27",
    "city": "בת ים",
    "neighborhood": "",
    "type": "תת קרקעי",
    "source": "gov",
    "category": "public"
  },
  {
    "id": "bat-yam-19",
    "lat": 32.0187656,
    "lon": 34.7468379,
    "name": "ביה\"ס ציפורי",
    "address": "פנקס 2",
    "city": "בת ים",
    "neighborhood": "",
    "type": "מקלט מוסד חינוך",
    "source": "gov",
    "category": "school"
  },
  {
    "id": "bat-yam-20",
    "lat": 32.0240002,
    "lon": 34.7490335,
    "name": "ביה\"ס נחשונים",
    "address": "הרב הרצוג 9",
    "city": "בת ים",
    "neighborhood": "",
    "type": "מקלט מוסד חינוך",
    "source": "gov",
    "category": "school"
  },
  {
    "id": "bat-yam-21",
    "lat": 32.0211016,
    "lon": 34.747707,
    "name": "ביה\"ס ראשונים",
    "address": "פרלשטיין 24",
    "city": "בת ים",
    "neighborhood": "",
    "type": "מקלט מוסד חינוך",
    "source": "gov",
    "category": "school"
  },
  {
    "id": "bat-yam-22",
    "lat": 32.0295246,
    "lon": 34.7460431,
    "name": "ביה\"ס גורדון",
    "address": "רמב\"ם 11",
    "city": "בת ים",
    "neighborhood": "",
    "type": "מקלט מוסד חינוך",
    "source": "gov",
    "category": "school"
  },
  {
    "id": "bat-yam-23",
    "lat": 32.0115594,
    "lon": 34.7599533,
    "name": "ביה\"ס הנשיא",
    "address": "ליבורנו 11",
    "city": "בת ים",
    "neighborhood": "",
    "type": "מקלט מוסד חינוך",
    "source": "gov",
    "category": "school"
  },
  {
    "id": "bat-yam-24",
    "lat": 32.0155656,
    "lon": 34.7546087,
    "name": "ביה\"ס יד מרדכי",
    "address": "כצנלסון 55",
    "city": "בת ים",
    "neighborhood": "",
    "type": "מקלט מוסד חינוך",
    "source": "gov",
    "category": "school"
  },
  {
    "id": "bat-yam-25",
    "lat": 32.0279481,
    "lon": 34.7513273,
    "name": "ביה\"ס עקיבא",
    "address": "נגבה 10",
    "city": "בת ים",
    "neighborhood": "",
    "type": "מקלט מוסד חינוך",
    "source": "gov",
    "category": "school"
  },
  {
    "id": "bat-yam-26",
    "lat": 32.0095813,
    "lon": 34.7607316,
    "name": "ביה\"ס הראל",
    "address": "כובשי החרמון 4",
    "city": "בת ים",
    "neighborhood": "",
    "type": "מקלט מוסד חינוך",
    "source": "gov",
    "category": "school"
  },
  {
    "id": "bat-yam-27",
    "lat": 32.0188486,
    "lon": 34.7560894,
    "name": "תיכון רמת יוסף",
    "address": "הדדי",
    "city": "בת ים",
    "neighborhood": "",
    "type": "מקלט מוסד חינוך",
    "source": "gov",
    "category": "school"
  },
  {
    "id": "bat-yam-28",
    "lat": 32.0260321,
    "lon": 34.7559195,
    "name": "נתיבות רבקה",
    "address": "המעפילים 1",
    "city": "בת ים",
    "neighborhood": "",
    "type": "מקלט מוסד חינוך",
    "source": "gov",
    "category": "school"
  },
  {
    "id": "bat-yam-29",
    "lat": 32.0252481,
    "lon": 34.7598849,
    "name": "מתנ\"ס גאולים",
    "address": "ניצנה 13",
    "city": "בת ים",
    "neighborhood": "",
    "type": "מקלט מוסד חינוך",
    "source": "gov",
    "category": "school"
  },
  {
    "id": "bat-yam-30",
    "lat": 32.0236851,
    "lon": 34.7438682,
    "name": "בית וגן",
    "address": "הרב קוק 17",
    "city": "בת ים",
    "neighborhood": "",
    "type": "מקלט מוסד חינוך",
    "source": "gov",
    "category": "school"
  },
  {
    "id": "bat-yam-31",
    "lat": 32.0046018,
    "lon": 34.7481762,
    "name": "חט\"ב שז\"ר",
    "address": "ניסנבאום 66",
    "city": "בת ים",
    "neighborhood": "",
    "type": "מקלט מוסד חינוך",
    "source": "gov",
    "category": "school"
  },
  {
    "id": "bat-yam-32",
    "lat": 32.0177924,
    "lon": 34.7536891,
    "name": "שרת חינוך",
    "address": "חביבה רייך 22",
    "city": "בת ים",
    "neighborhood": "",
    "type": "מקלט מוסד חינוך",
    "source": "gov",
    "category": "school"
  },
  {
    "id": "bat-yam-33",
    "lat": 32.0137412,
    "lon": 34.7442187,
    "name": "יצחק שדה",
    "address": "השקמה 28",
    "city": "בת ים",
    "neighborhood": "",
    "type": "מקלט מוסד חינוך",
    "source": "gov",
    "category": "school"
  },
  {
    "id": "bat-yam-34",
    "lat": 32.02198,
    "lon": 34.7588689,
    "name": "תפו\"ס",
    "address": "רהב 7",
    "city": "בת ים",
    "neighborhood": "",
    "type": "מקלט מוסד חינוך",
    "source": "gov",
    "category": "school"
  },
  {
    "id": "bat-yam-35",
    "lat": 32.0130038,
    "lon": 34.7526945,
    "name": "יגאל אלון",
    "address": "ניסנבאום 22",
    "city": "בת ים",
    "neighborhood": "",
    "type": "מקלט מוסד חינוך",
    "source": "gov",
    "category": "school"
  },
  {
    "id": "bat-yam-37",
    "lat": 32.02198,
    "lon": 34.7588689,
    "name": "מכללת בת ים",
    "address": "רהב 7",
    "city": "בת ים",
    "neighborhood": "",
    "type": "מקלט מוסד חינוך",
    "source": "gov",
    "category": "school"
  },
  {
    "id": "bat-yam-38",
    "lat": 32.013232,
    "lon": 34.7558447,
    "name": "תיכון שז\"ר",
    "address": "מוכרי הסיגריות 2",
    "city": "בת ים",
    "neighborhood": "",
    "type": "מקלט מוסד חינוך",
    "source": "gov",
    "category": "school"
  },
  {
    "id": "bat-yam-39",
    "lat": 32.0268408,
    "lon": 34.7580058,
    "name": "החלוצים",
    "address": "החלוצים 9",
    "city": "בת ים",
    "neighborhood": "",
    "type": "מקלט מוסד חינוך",
    "source": "gov",
    "category": "school"
  },
  {
    "id": "bat-yam-40",
    "lat": 32.0166917,
    "lon": 34.760546,
    "name": "צביה",
    "address": "הנרייטה סולד 10",
    "city": "בת ים",
    "neighborhood": "",
    "type": "מקלט מוסד חינוך",
    "source": "gov",
    "category": "school"
  },
  {
    "id": "bat-yam-41",
    "lat": 32.0266675,
    "lon": 34.7430828,
    "name": "תחכמוני",
    "address": "הרצל 58",
    "city": "בת ים",
    "neighborhood": "",
    "type": "מקלט מוסד חינוך",
    "source": "gov",
    "category": "school"
  },
  {
    "id": "bat-yam-42",
    "lat": 32.0260321,
    "lon": 34.7559195,
    "name": "ירושלים",
    "address": "המעפילים 18",
    "city": "בת ים",
    "neighborhood": "",
    "type": "מקלט מוסד חינוך",
    "source": "gov",
    "category": "school"
  },
  {
    "id": "bat-yam-43",
    "lat": 32.0229382,
    "lon": 34.7409761,
    "name": "דוד אלעזר",
    "address": "מסריק 25",
    "city": "בת ים",
    "neighborhood": "",
    "type": "מקלט מוסד חינוך",
    "source": "gov",
    "category": "school"
  },
  {
    "id": "bat-yam-44",
    "lat": 32.0229382,
    "lon": 34.7409761,
    "name": "סוקולוב",
    "address": "מסריק 25",
    "city": "בת ים",
    "neighborhood": "",
    "type": "מקלט מוסד חינוך",
    "source": "gov",
    "category": "school"
  },
  {
    "id": "bat-yam-45",
    "lat": 32.0101548,
    "lon": 34.7456876,
    "name": "ישועות יעקב",
    "address": "האורגים 22",
    "city": "בת ים",
    "neighborhood": "",
    "type": "מקלט מוסד חינוך",
    "source": "gov",
    "category": "school"
  }
]