[
  {
    "id": "גדרה-1",
    "lat": 31.8192978,
    "lon": 34.7978926,
    "name": "מקלט קדרון",
    "address": "קדרון",
    "city": "גדרה",
    "type": "מקלט ציבורי",
    "source": "gov",
    "category": "public",
    "addressEn": "קדרון, ישראל"
  },
  {
    "id": "גדרה-2",
    "lat": 31.8188036,
    "lon": 34.7802622,
    "name": "מקלט מרבד הקסמים 20",
    "address": "מרבד הקסמים 20",
    "city": "גדרה",
    "type": "מקלט ציבורי",
    "source": "gov",
    "category": "public",
    "addressEn": "מרבד הקסמים 20, גדרה, ישראל"
  },
  {
    "id": "גדרה-3",
    "lat": 31.8169743,
    "lon": 34.7871859,
    "name": "מקלט ויצמן 49",
    "address": "ויצמן 49",
    "city": "גדרה",
    "type": "מקלט ציבורי",
    "source": "gov",
    "category": "public",
    "addressEn": "וייצמן 49, גדרה, ישראל"
  },
  {
    "id": "גדרה-4",
    "lat": 31.8241936,
    "lon": 34.7772318,
    "name": "מקלט אלי כהן 12",
    "address": "אלי כהן 12",
    "city": "גדרה",
    "type": "מקלט ציבורי",
    "source": "gov",
    "category": "public",
    "addressEn": "אלי כהן 12, גדרה, ישראל"
  },
  {
    "id": "גדרה-5",
    "lat": 31.8240265,
    "lon": 34.7778849,
    "name": "מקלט הנשיא 4",
    "address": "הנשיא 4",
    "city": "גדרה",
    "type": "מקלט ציבורי",
    "source": "gov",
    "category": "public",
    "addressEn": "הנשיא 4, גדרה, ישראל"
  },
  {
    "id": "גדרה-6",
    "lat": 31.8133547,
    "lon": 34.7785233,
    "name": "מקלט רמז 19",
    "address": "רמז 19",
    "city": "גדרה",
    "type": "מקלט ציבורי",
    "source": "gov",
    "category": "public",
    "addressEn": "דוד רמז 19, גדרה, ישראל"
  },
  {
    "id": "גדרה-7",
    "lat": 31.8137315,
    "lon": 34.7791787,
    "name": "תיכון בגין",
    "address": "משה נבט",
    "city": "גדרה",
    "type": "מקלט ציבורי",
    "source": "gov",
    "category": "school",
    "addressEn": "משה נבט, גדרה, ישראל"
  },
  {
    "id": "גדרה-8",
    "lat": 31.8093857,
    "lon": 34.7778459,
    "name": "בית הספר פינס",
    "address": "פינס",
    "city": "גדרה",
    "type": "מקלט ציבורי",
    "source": "gov",
    "category": "school",
    "addressEn": "פינס, גדרה, ישראל"
  },
  {
    "id": "גדרה-9",
    "lat": 31.8027004,
    "lon": 34.7864686,
    "name": "מרכז דנה",
    "address": "ארז 2",
    "city": "גדרה",
    "type": "מקלט ציבורי",
    "source": "gov",
    "category": "public",
    "addressEn": "ארז 2, גדרה, ישראל"
  },
  {
    "id": "גדרה-10",
    "lat": 31.8179336,
    "lon": 34.7879814,
    "name": "ת\"ת מעלות רם",
    "address": "גד 17",
    "city": "גדרה",
    "type": "מקלט ציבורי",
    "source": "gov",
    "category": "school",
    "addressEn": "גד 17, גדרה, ישראל"
  },
  {
    "id": "גדרה-11",
    "lat": 31.8166333,
    "lon": 34.7810689,
    "name": "מקלט בני עקיבא",
    "address": "ויצמן",
    "city": "גדרה",
    "type": "מקלט ציבורי",
    "source": "gov",
    "category": "public",
    "addressEn": "וייצמן, גדרה, ישראל"
  },
  {
    "id": "גדרה-12",
    "lat": 31.8186764,
    "lon": 34.777936,
    "name": "ספרייה",
    "address": "לילנבלום",
    "city": "גדרה",
    "type": "מקלט ציבורי",
    "source": "gov",
    "category": "public",
    "addressEn": "לילינבלום, גדרה, ישראל"
  },
  {
    "id": "גדרה-13",
    "lat": 31.815083,
    "lon": 34.776795,
    "name": "מקלט שירותים חברתיים",
    "address": "פייבל 5",
    "city": "גדרה",
    "type": "מקלט ציבורי",
    "source": "gov",
    "category": "public",
    "addressEn": "פייבל 5, גדרה, ישראל"
  },
  {
    "id": "גדרה-14",
    "lat": 31.8199876,
    "lon": 34.7751553,
    "name": "המרכז להתפתחות הילד",
    "address": "אשר 11",
    "city": "גדרה",
    "type": "מקלט ציבורי",
    "source": "gov",
    "category": "public",
    "addressEn": "אשר 11, גדרה, ישראל"
  },
  {
    "id": "גדרה-15",
    "lat": 31.8207014,
    "lon": 34.7768957,
    "name": "מועדונית קסם",
    "address": "שבזי",
    "city": "גדרה",
    "type": "מקלט ציבורי",
    "source": "gov",
    "category": "public",
    "addressEn": "שבזי, גדרה, ישראל"
  }
]