[
  {
    "id": "גדרה-1",
    "lat": 31.8192978,
    "lon": 34.7978926,
    "name": "מקלט קדרון",
    "address": "קדרון",
    "city": "גדרה",
    "type": "מקלט ציבורי",
    "source": "gov",
    "category": "public",
    "addressEn": "קדרון, ישראל"
  },
  {
    "id": "גדרה-2",
    "lat": 31.8188036,
    "lon": 34.7802622,
    "name": "מקלט מרבד הקסמים 20",
    "address": "מרבד הקסמים 20",
    "city": "גדרה",
    "type": "מקלט ציבורי",
    "source": "gov",
    "category": "public",
    "addressEn": "מרבד הקסמים 20, גדרה, ישראל"
  },
  {
    "id": "גדרה-3",
    "lat": 31.8169743,
    "lon": 34.7871859,
    "name": "מקלט ויצמן 49",
    "address": "ויצמן 49",
    "city": "גדרה",
    "type": "מקלט ציבורי",
    "source": "gov",
    "category": "public",
    "addressEn": "וייצמן 49, גדרה, ישראל"
  },
  {
    "id": "גדרה-4",
    "lat": 31.8241936,
    "lon": 34.7772318,
    "name": "מקלט אלי כהן 12",
    "address": "אלי כהן 12",
    "city": "גדרה",
    "type": "מקלט ציבורי",
    "source": "gov",
    "category": "public",
    "addressEn": "אלי כהן 12, גדרה, ישראל"
  },
  {
    "id": "גדרה-5",
    "lat": 31.8240265,
    "lon": 34.7778849,
    "name": "מקלט הנשיא 4",
    "address": "הנשיא 4",
    "city": "גדרה",
    "type": "מקלט ציבורי",
    "source": "gov",
    "category": "public",
    "addressEn": "הנשיא 4, גדרה, ישראל"
  },
  {
    "id": "גדרה-6",
    "lat": 31.8133547,
    "lon": 34.7785233,
    "name": "מקלט רמז 19",
    "address": "רמז 19",
    "city": "גדרה",
    "type": "מקלט ציבורי",
    "source": "gov",
    "category": "public",
    "addressEn": "דוד רמז 19, גדרה, ישראל"
  },
  {
    "id": "גדרה-7",
    "lat": 31.8137315,
    "lon": 34.7791787,
    "name": "תיכון בגין",
    "address": "משה נבט",
    "city": "גדרה",
    "type": "מקלט ציבורי",
    "source": "gov",
    "category": "school",
    "addressEn": "משה נבט, גדרה, ישראל"
  },
  {
    "id": "גדרה-8",
    "lat": 31.8093857,
    "lon": 34.7778459,
    "name": "בית הספר פינס",
    "address": "פינס",
    "city": "גדרה",
    "type": "מקלט ציבורי",
    "source": "gov",
    "category": "school",
    "addressEn": "פינס, גדרה, ישראל"
  },
  {
    "id": "גדרה-9",
    "lat": 31.8027004,
    "lon": 34.7864686,
    "name": "מרכז דנה",
    "address": "ארז 2",
    "city": "גדרה",
    "type": "מקלט ציבורי",
    "source": "gov",
    "category": "public",
    "addressEn": "ארז 2, גדרה, ישראל"
  },
  {
    "id": "גדרה-10",
    "lat": 31.8179336,
    "lon": 34.7879814,
    "name": "ת\"ת מעלות רם",
    "address": "גד 17",
    "city": "גדרה",
    "type": "מקלט ציבורי",
    "source": "gov",
    "category": "school",
    "addressEn": "גד 17, גדרה, ישראל"
  },
  {
    "id": "גדרה-11",
    "lat": 31.8166333,
    "lon": 34.7810689,
    "name": "מקלט בני עקיבא",
    "address": "ויצמן",
    "city": "גדרה",
    "type": "מקלט ציבורי",
    "source": "gov",
    "category": "public",
    "addressEn": "וייצמן, גדרה, ישראל"
  },
  {
    "id": "גדרה-12",
    "lat": 31.8186764,
    "lon": 34.777936,
    "name": "ספרייה",
    "address": "לילנבלום",
    "city": "גדרה",
    "type": "מקלט ציבורי",
    "source": "gov",
    "category": "public",
    "addressEn": "לילינבלום, גדרה, ישראל"
  },
  {
    "id": "גדרה-13",
    "lat": 31.815083,
    "lon": 34.776795,
    "name": "מקלט שירותים חברתיים",
    "address": "פייבל 5",
    "city": "גדרה",
    "type": "מקלט ציבורי",
    "source": "gov",
    "category": "public",
    "addressEn": "פייבל 5, גדרה, ישראל"
  },
  {
    "id": "גדרה-14",
    "lat": 31.8199876,
    "lon": 34.7751553,
    "name": "המרכז להתפתחות הילד",
    "address": "אשר 11",
    "city": "גדרה",
    "type": "מקלט ציבורי",
    "source": "gov",
    "category": "public",
    "addressEn": "אשר 11, גדרה, ישראל"
  },
  {
    "id": "גדרה-15",
    "lat": 31.8207014,
    "lon": 34.7768957,
    "name": "מועדונית קסם",
    "address": "שבזי",
    "city": "גדרה",
    "type": "מקלט ציבורי",
    "source": "gov",
    "category": "public",
    "addressEn": "שבזי, גדרה, ישראל"
  },
  {
    "id": "גדרה-16",
    "lat": 31.814417,
    "lon": 34.7850787,
    "name": "מקלט הרב גמליאל 5",
    "address": "הרב גמליאל 5",
    "city": "גדרה",
    "type": "מקלט ציבורי",
    "source": "gov",
    "category": "public",
    "addressEn": ""
  },
  {
    "id": "גדרה-17",
    "lat": 31.8132948,
    "lon": 34.787909,
    "name": "מקלט מוצקין 5",
    "address": "מוצקין 5",
    "city": "גדרה",
    "type": "מקלט ציבורי",
    "source": "gov",
    "category": "public",
    "addressEn": ""
  },
  {
    "id": "גדרה-18",
    "lat": 31.8148779,
    "lon": 34.7874661,
    "name": "מקלט מנשה 7",
    "address": "מנשה 7",
    "city": "גדרה",
    "type": "מקלט ציבורי",
    "source": "gov",
    "category": "public",
    "addressEn": ""
  },
  {
    "id": "גדרה-19",
    "lat": 31.812446,
    "lon": 34.7825701,
    "name": "מקלט דרך ארץ 34",
    "address": "דרך ארץ 34",
    "city": "גדרה",
    "type": "מקלט ציבורי",
    "source": "gov",
    "category": "public",
    "addressEn": ""
  },
  {
    "id": "גדרה-20",
    "lat": 31.8165921,
    "lon": 34.7820179,
    "name": "מקלט ויצמן 44",
    "address": "ויצמן 44",
    "city": "גדרה",
    "type": "מקלט ציבורי",
    "source": "gov",
    "category": "public",
    "addressEn": ""
  },
  {
    "id": "גדרה-21",
    "lat": 31.8130704,
    "lon": 34.7811321,
    "name": "מקלט יששכר 41",
    "address": "יששכר 41",
    "city": "גדרה",
    "type": "מקלט ציבורי",
    "source": "gov",
    "category": "public",
    "addressEn": ""
  },
  {
    "id": "גדרה-22",
    "lat": 31.8237591,
    "lon": 34.776432,
    "name": "מקלט שבטי ישראל 34",
    "address": "שבטי ישראל 34",
    "city": "גדרה",
    "type": "מקלט ציבורי",
    "source": "gov",
    "category": "public",
    "addressEn": ""
  },
  {
    "id": "גדרה-23",
    "lat": 31.8218126,
    "lon": 34.7791306,
    "name": "מקלט שפרינצק 36",
    "address": "שפרינצק 36",
    "city": "גדרה",
    "type": "מקלט ציבורי",
    "source": "gov",
    "category": "public",
    "addressEn": ""
  },
  {
    "id": "גדרה-24",
    "lat": 31.8194983,
    "lon": 34.7803086,
    "name": "מקלט ראובן 11",
    "address": "ראובן 11",
    "city": "גדרה",
    "type": "מקלט ציבורי",
    "source": "gov",
    "category": "public",
    "addressEn": ""
  },
  {
    "id": "גדרה-25",
    "lat": 31.813,
    "lon": 34.778,
    "name": "מקלט חניית בית ספר רמון",
    "address": "חניית בית ספר רמון",
    "city": "גדרה",
    "type": "מקלט ציבורי",
    "source": "gov",
    "category": "public",
    "addressEn": ""
  },
  {
    "id": "גדרה-26",
    "lat": 31.8126103,
    "lon": 34.7721804,
    "name": "מקלט גן בילו",
    "address": "גן בילו",
    "city": "גדרה",
    "type": "מקלט ציבורי",
    "source": "gov",
    "category": "public",
    "addressEn": ""
  },
  {
    "id": "גדרה-27",
    "lat": 31.815,
    "lon": 34.785,
    "name": "מקלט ספורטק",
    "address": "ספורטק",
    "city": "גדרה",
    "type": "מקלט ציבורי",
    "source": "gov",
    "category": "public",
    "addressEn": ""
  },
  {
    "id": "גדרה-28",
    "lat": 31.8070068,
    "lon": 34.7701089,
    "name": "מקלט בית עלמין",
    "address": "בית עלמין",
    "city": "גדרה",
    "type": "מקלט ציבורי",
    "source": "gov",
    "category": "public",
    "addressEn": ""
  },
  {
    "id": "גדרה-29",
    "lat": 31.8178849,
    "lon": 34.783265,
    "name": "מקלט גן הבנים",
    "address": "גן הבנים",
    "city": "גדרה",
    "type": "מקלט ציבורי",
    "source": "gov",
    "category": "public",
    "addressEn": ""
  },
  {
    "id": "גדרה-30",
    "lat": 31.8189926,
    "lon": 34.7740664,
    "name": "מקלט גן דני",
    "address": "גן דני",
    "city": "גדרה",
    "type": "מקלט ציבורי",
    "source": "gov",
    "category": "public",
    "addressEn": ""
  },
  {
    "id": "גדרה-31",
    "lat": 31.8120082,
    "lon": 34.7774347,
    "name": "מקלט בית רחל",
    "address": "בית רחל",
    "city": "גדרה",
    "type": "מקלט ציבורי",
    "source": "gov",
    "category": "public",
    "addressEn": ""
  },
  {
    "id": "גדרה-32",
    "lat": 31.814,
    "lon": 34.78,
    "name": "מקלט גן שבע",
    "address": "גן שבע",
    "city": "גדרה",
    "type": "מקלט ציבורי",
    "source": "gov",
    "category": "public",
    "addressEn": ""
  },
  {
    "id": "גדרה-33",
    "lat": 31.8120082,
    "lon": 34.7774347,
    "name": "מקלט מוזיאון גדרה",
    "address": "מוזיאון גדרה",
    "city": "גדרה",
    "type": "מקלט ציבורי",
    "source": "gov",
    "category": "public",
    "addressEn": ""
  },
  {
    "id": "גדרה-34",
    "lat": 31.8152286,
    "lon": 34.773258,
    "name": "מקלט הביליויים",
    "address": "הביליויים",
    "city": "גדרה",
    "type": "מקלט ציבורי",
    "source": "gov",
    "category": "public",
    "addressEn": ""
  },
  {
    "id": "גדרה-35",
    "lat": 31.8144155,
    "lon": 34.7688851,
    "name": "מקלט שלום עליכם",
    "address": "שלום עליכם",
    "city": "גדרה",
    "type": "מקלט ציבורי",
    "source": "gov",
    "category": "public",
    "addressEn": ""
  },
  {
    "id": "גדרה-36",
    "lat": 31.8216578,
    "lon": 34.7827817,
    "name": "מקלט שמעון",
    "address": "שמעון",
    "city": "גדרה",
    "type": "מקלט ציבורי",
    "source": "gov",
    "category": "public",
    "addressEn": ""
  }
]