[
  {
    "id": "geojson_jerusalem_202",
    "lat": 31.797088,
    "lon": 35.218088,
    "name": "מקלט 602",
    "address": "",
    "city": "ירושלים",
    "capacity": "",
    "type": "מקלט ציבורי",
    "source": "gov",
    "category": "public",
    "addressEn": "Sderot Golda Me'ir 3, Jerusalem"
  },
  {
    "id": "geojson_jerusalem_203",
    "lat": 31.791847,
    "lon": 35.217089,
    "name": "מקלט 609",
    "address": "",
    "city": "ירושלים",
    "capacity": "",
    "type": "מקלט ציבורי",
    "source": "gov",
    "category": "public",
    "addressEn": "Nekhemya St 33, Jerusalem"
  },
  {
    "id": "geojson_jerusalem_204",
    "lat": 31.790026,
    "lon": 35.210567,
    "name": "מקלט 643",
    "address": "",
    "city": "ירושלים",
    "capacity": "",
    "type": "מקלט ציבורי",
    "source": "gov",
    "category": "public",
    "addressEn": "HaZayit St 1, Jerusalem"
  },
  {
    "id": "geojson_jerusalem_205",
    "lat": 31.782822,
    "lon": 35.208722,
    "name": "מקלט 648",
    "address": "",
    "city": "ירושלים",
    "capacity": "",
    "type": "מקלט ציבורי",
    "source": "gov",
    "category": "public",
    "addressEn": "ירושלים, Jerusalem"
  },
  {
    "id": "geojson_jerusalem_206",
    "lat": 31.783399,
    "lon": 35.210897,
    "name": "מקלט 649",
    "address": "",
    "city": "ירושלים",
    "capacity": "",
    "type": "מקלט ציבורי",
    "source": "gov",
    "category": "public",
    "addressEn": "Eilat St 17, Jerusalem"
  },
  {
    "id": "geojson_jerusalem_207",
    "lat": 31.781781,
    "lon": 35.225929,
    "name": "מקלט 653",
    "address": "",
    "city": "ירושלים",
    "capacity": "",
    "type": "מקלט ציבורי",
    "source": "gov",
    "category": "public",
    "addressEn": "HaAyin Het St 18, Jerusalem"
  },
  {
    "id": "geojson_jerusalem_208",
    "lat": 31.773488,
    "lon": 35.218717,
    "name": "מקלט 656",
    "address": "",
    "city": "ירושלים",
    "capacity": "",
    "type": "מקלט ציבורי",
    "source": "gov",
    "category": "public",
    "addressEn": "Akhad ha-Am St 4, Jerusalem"
  },
  {
    "id": "geojson_jerusalem_209",
    "lat": 31.779165,
    "lon": 35.210417,
    "name": "מקלט 657",
    "address": "",
    "city": "ירושלים",
    "capacity": "",
    "type": "מקלט ציבורי",
    "source": "gov",
    "category": "public",
    "addressEn": "Mordehai Narkis St 41, Jerusalem"
  },
  {
    "id": "geojson_jerusalem_210",
    "lat": 31.774715,
    "lon": 35.214567,
    "name": "מקלט 659",
    "address": "",
    "city": "ירושלים",
    "capacity": "",
    "type": "מקלט ציבורי",
    "source": "gov",
    "category": "public",
    "addressEn": "Giraffe Park, Ramban St 25, Jerusalem"
  },
  {
    "id": "geojson_jerusalem_211",
    "lat": 31.76997,
    "lon": 35.218238,
    "name": "מקלט 664",
    "address": "",
    "city": "ירושלים",
    "capacity": "",
    "type": "מקלט ציבורי",
    "source": "gov",
    "category": "public",
    "addressEn": "Yehuda Alkalai St 8, Jerusalem, 9788702"
  },
  {
    "id": "geojson_jerusalem_212",
    "lat": 31.764905,
    "lon": 35.212229,
    "name": "מקלט 670",
    "address": "",
    "city": "ירושלים",
    "capacity": "",
    "type": "מקלט ציבורי",
    "source": "gov",
    "category": "public",
    "addressEn": "Bostanai St 14, Jerusalem"
  },
  {
    "id": "geojson_jerusalem_213",
    "lat": 31.763556,
    "lon": 35.220512,
    "name": "מקלט 676",
    "address": "",
    "city": "ירושלים",
    "capacity": "",
    "type": "מקלט ציבורי",
    "source": "gov",
    "category": "public",
    "addressEn": "Masaryk St 4, Jerusalem"
  },
  {
    "id": "geojson_jerusalem_214",
    "lat": 31.763049,
    "lon": 35.224809,
    "name": "מקלט 679",
    "address": "",
    "city": "ירושלים",
    "capacity": "",
    "type": "מקלט ציבורי",
    "source": "gov",
    "category": "public",
    "addressEn": "60 63, Jerusalem"
  },
  {
    "id": "geojson_jerusalem_215",
    "lat": 31.75908,
    "lon": 35.21839,
    "name": "מקלט 681",
    "address": "",
    "city": "ירושלים",
    "capacity": "",
    "type": "מקלט ציבורי",
    "source": "gov",
    "category": "public",
    "addressEn": "Dan St 8, Jerusalem"
  },
  {
    "id": "geojson_jerusalem_216",
    "lat": 31.758947,
    "lon": 35.21813,
    "name": "מקלט 682",
    "address": "",
    "city": "ירושלים",
    "capacity": "",
    "type": "מקלט ציבורי",
    "source": "gov",
    "category": "public",
    "addressEn": "Dan St 13, Jerusalem"
  },
  {
    "id": "geojson_jerusalem_217",
    "lat": 31.759434,
    "lon": 35.222785,
    "name": "מקלט 683",
    "address": "",
    "city": "ירושלים",
    "capacity": "",
    "type": "מקלט ציבורי",
    "source": "gov",
    "category": "public",
    "addressEn": "Yekhezkel Marton St 5, Jerusalem, 9356005"
  },
  {
    "id": "geojson_jerusalem_218",
    "lat": 31.752313,
    "lon": 35.220972,
    "name": "מקלט 688",
    "address": "",
    "city": "ירושלים",
    "capacity": "",
    "type": "מקלט ציבורי",
    "source": "gov",
    "category": "public",
    "addressEn": "Avraham Shalom Yehuda St 7, Jerusalem"
  },
  {
    "id": "geojson_jerusalem_219",
    "lat": 31.761052,
    "lon": 35.215916,
    "name": "מקלט 692",
    "address": "",
    "city": "ירושלים",
    "capacity": "",
    "type": "מקלט ציבורי",
    "source": "gov",
    "category": "public",
    "addressEn": "Emek Refa'im St 66, Jerusalem"
  },
  {
    "id": "geojson_jerusalem_220",
    "lat": 31.762146,
    "lon": 35.213572,
    "name": "מקלט 693",
    "address": "",
    "city": "ירושלים",
    "capacity": "",
    "type": "מקלט ציבורי",
    "source": "gov",
    "category": "public",
    "addressEn": "El'azar ha-Moda'I St 17, Jerusalem"
  },
  {
    "id": "geojson_jerusalem_221",
    "lat": 31.761375,
    "lon": 35.214486,
    "name": "מקלט 694",
    "address": "",
    "city": "ירושלים",
    "capacity": "",
    "type": "מקלט ציבורי",
    "source": "gov",
    "category": "public",
    "addressEn": "El'azar Hamoda'i/Reish Lakish, Jerusalem"
  },
  {
    "id": "geojson_jerusalem_222",
    "lat": 31.760727,
    "lon": 35.212616,
    "name": "מקלט 696",
    "address": "",
    "city": "ירושלים",
    "capacity": "",
    "type": "מקלט ציבורי",
    "source": "gov",
    "category": "public",
    "addressEn": "Reish Lakish St 2, Jerusalem"
  },
  {
    "id": "geojson_jerusalem_223",
    "lat": 31.760217,
    "lon": 35.2146,
    "name": "מקלט 697",
    "address": "",
    "city": "ירושלים",
    "capacity": "",
    "type": "מקלט ציבורי",
    "source": "gov",
    "category": "public",
    "addressEn": "El'azar ha-Moda'I St 7, Jerusalem, 93671"
  },
  {
    "id": "geojson_jerusalem_224",
    "lat": 31.757954,
    "lon": 35.211606,
    "name": "מקלט 705",
    "address": "",
    "city": "ירושלים",
    "capacity": "",
    "type": "מקלט ציבורי",
    "source": "gov",
    "category": "public",
    "addressEn": "Ma'agalei Yavne St 8, Jerusalem"
  },
  {
    "id": "geojson_jerusalem_225",
    "lat": 31.753276,
    "lon": 35.21026,
    "name": "מקלט 706",
    "address": "",
    "city": "ירושלים",
    "capacity": "",
    "type": "מקלט ציבורי",
    "source": "gov",
    "category": "public",
    "addressEn": "Mekor Haim St 50, Jerusalem, 93301"
  },
  {
    "id": "geojson_jerusalem_226",
    "lat": 31.754502,
    "lon": 35.177733,
    "name": "מקלט 720",
    "address": "",
    "city": "ירושלים",
    "capacity": "",
    "type": "מקלט ציבורי",
    "source": "gov",
    "category": "public",
    "addressEn": "Uruguay St 31, Jerusalem"
  },
  {
    "id": "geojson_jerusalem_227",
    "lat": 31.755306,
    "lon": 35.176924,
    "name": "מקלט 721",
    "address": "",
    "city": "ירושלים",
    "capacity": "",
    "type": "מקלט ציבורי",
    "source": "gov",
    "category": "public",
    "addressEn": "Uruguay St 42, Jerusalem"
  },
  {
    "id": "geojson_jerusalem_228",
    "lat": 31.758705,
    "lon": 35.164388,
    "name": "מקלט 731",
    "address": "",
    "city": "ירושלים",
    "capacity": "",
    "type": "מקלט ציבורי",
    "source": "gov",
    "category": "public",
    "addressEn": "Colombia St 9, Jerusalem"
  },
  {
    "id": "geojson_jerusalem_229",
    "lat": 31.759138,
    "lon": 35.164551,
    "name": "מקלט 734",
    "address": "",
    "city": "ירושלים",
    "capacity": "",
    "type": "מקלט ציבורי",
    "source": "gov",
    "category": "public",
    "addressEn": "Szold Institute/Colombia, Jerusalem"
  },
  {
    "id": "geojson_jerusalem_230",
    "lat": 31.765495,
    "lon": 35.182351,
    "name": "מקלט 742",
    "address": "",
    "city": "ירושלים",
    "capacity": "",
    "type": "מקלט ציבורי",
    "source": "gov",
    "category": "public",
    "addressEn": "Sha'arei Tora St 12, Jerusalem"
  },
  {
    "id": "geojson_jerusalem_231",
    "lat": 31.754588,
    "lon": 35.196925,
    "name": "מקלט 757",
    "address": "",
    "city": "ירושלים",
    "capacity": "",
    "type": "מקלט ציבורי",
    "source": "gov",
    "category": "public",
    "addressEn": "HaShomer St 13, Jerusalem"
  },
  {
    "id": "geojson_jerusalem_232",
    "lat": 31.746399,
    "lon": 35.215728,
    "name": "מקלט 760",
    "address": "",
    "city": "ירושלים",
    "capacity": "",
    "type": "מקלט ציבורי",
    "source": "gov",
    "category": "public",
    "addressEn": "Beit Lehem Rd 164, Jerusalem"
  },
  {
    "id": "geojson_jerusalem_233",
    "lat": 31.764335,
    "lon": 35.218903,
    "name": "מקלט 804",
    "address": "",
    "city": "ירושלים",
    "capacity": "",
    "type": "מקלט ציבורי",
    "source": "gov",
    "category": "public",
    "addressEn": "Azri'el Hildesheimer St 10, Jerusalem"
  },
  {
    "id": "geojson_jerusalem_234",
    "lat": 31.788788,
    "lon": 35.207618,
    "name": "מקלט 806",
    "address": "",
    "city": "ירושלים",
    "capacity": "",
    "type": "מקלט ציבורי",
    "source": "gov",
    "category": "public",
    "addressEn": "Rashi St 70, Jerusalem"
  },
  {
    "id": "geojson_jerusalem_235",
    "lat": 31.772689,
    "lon": 35.215992,
    "name": "מקלט 810",
    "address": "",
    "city": "ירושלים",
    "capacity": "",
    "type": "מקלט ציבורי",
    "source": "gov",
    "category": "public",
    "addressEn": "Ovadya mi-Bartenura St 8, Jerusalem"
  },
  {
    "id": "geojson_jerusalem_236",
    "lat": 31.76033,
    "lon": 35.219373,
    "name": "מקלט 823",
    "address": "",
    "city": "ירושלים",
    "capacity": "",
    "type": "מקלט ציבורי",
    "source": "gov",
    "category": "public",
    "addressEn": "Gid'on St 13, Jerusalem"
  },
  {
    "id": "geojson_jerusalem_237",
    "lat": 31.752542,
    "lon": 35.166196,
    "name": "מקלט 840",
    "address": "",
    "city": "ירושלים",
    "capacity": "",
    "type": "מקלט ציבורי",
    "source": "gov",
    "category": "public",
    "addressEn": "HaSaifan St 31, Jerusalem"
  },
  {
    "id": "geojson_jerusalem_238",
    "lat": 31.797837,
    "lon": 35.218141,
    "name": "מקלט 601",
    "address": "",
    "city": "ירושלים",
    "capacity": "",
    "type": "מקלט ציבורי",
    "source": "gov",
    "category": "public",
    "addressEn": "HaSanhedrin St 16, Jerusalem"
  },
  {
    "id": "geojson_jerusalem_239",
    "lat": 31.797033,
    "lon": 35.219825,
    "name": "מקלט 603",
    "address": "",
    "city": "ירושלים",
    "capacity": "",
    "type": "מקלט ציבורי",
    "source": "gov",
    "category": "public",
    "addressEn": "HaRav BlauStreet 7, Jerusalem"
  },
  {
    "id": "geojson_jerusalem_240",
    "lat": 31.785249,
    "lon": 35.174356,
    "name": "מקלט 604",
    "address": "",
    "city": "ירושלים",
    "capacity": "",
    "type": "מקלט ציבורי",
    "source": "gov",
    "category": "public",
    "addressEn": "Ha-Rav S Sha'ulzon St 51, Jerusalem"
  },
  {
    "id": "geojson_jerusalem_241",
    "lat": 31.795335,
    "lon": 35.21881,
    "name": "מקלט 605",
    "address": "",
    "city": "ירושלים",
    "capacity": "",
    "type": "מקלט ציבורי",
    "source": "gov",
    "category": "public",
    "addressEn": "Bar Ilan 10, Jerusalem"
  },
  {
    "id": "geojson_jerusalem_242",
    "lat": 31.795142,
    "lon": 35.213707,
    "name": "מקלט 606",
    "address": "",
    "city": "ירושלים",
    "capacity": "",
    "type": "מקלט ציבורי",
    "source": "gov",
    "category": "public",
    "addressEn": "Pnina St 11, Jerusalem"
  },
  {
    "id": "geojson_jerusalem_243",
    "lat": 31.793538,
    "lon": 35.21433,
    "name": "מקלט 607",
    "address": "",
    "city": "ירושלים",
    "capacity": "",
    "type": "מקלט ציבורי",
    "source": "gov",
    "category": "public",
    "addressEn": "Yirmiyahu St 10, Jerusalem"
  },
  {
    "id": "geojson_jerusalem_244",
    "lat": 31.793228,
    "lon": 35.216846,
    "name": "מקלט 608",
    "address": "",
    "city": "ירושלים",
    "capacity": "",
    "type": "מקלט ציבורי",
    "source": "gov",
    "category": "public",
    "addressEn": "Rehovot Ha-Bocharim St 24, Jerusalem"
  },
  {
    "id": "geojson_jerusalem_245",
    "lat": 31.792065,
    "lon": 35.218244,
    "name": "מקלט 610",
    "address": "",
    "city": "ירושלים",
    "capacity": "",
    "type": "מקלט ציבורי",
    "source": "gov",
    "category": "public",
    "addressEn": "Rehovot Ha-Bocharim St 21, Jerusalem"
  },
  {
    "id": "geojson_jerusalem_246",
    "lat": 31.792722,
    "lon": 35.220233,
    "name": "מקלט 611",
    "address": "",
    "city": "ירושלים",
    "capacity": "",
    "type": "מקלט ציבורי",
    "source": "gov",
    "category": "public",
    "addressEn": "Rabenu Gershom St 24, Jerusalem"
  },
  {
    "id": "geojson_jerusalem_247",
    "lat": 31.789497,
    "lon": 35.22028,
    "name": "מקלט 612",
    "address": "",
    "city": "ירושלים",
    "capacity": "",
    "type": "מקלט ציבורי",
    "source": "gov",
    "category": "public",
    "addressEn": "Yoel St 13, Jerusalem"
  },
  {
    "id": "geojson_jerusalem_248",
    "lat": 31.791867,
    "lon": 35.221621,
    "name": "מקלט 613",
    "address": "",
    "city": "ירושלים",
    "capacity": "",
    "type": "מקלט ציבורי",
    "source": "gov",
    "category": "public",
    "addressEn": "Rabenu Gershom St 8, Jerusalem"
  },
  {
    "id": "geojson_jerusalem_249",
    "lat": 31.791801,
    "lon": 35.221063,
    "name": "מקלט 614",
    "address": "",
    "city": "ירושלים",
    "capacity": "",
    "type": "מקלט ציבורי",
    "source": "gov",
    "category": "public",
    "addressEn": "Shlomo Musayof St 15, Jerusalem"
  },
  {
    "id": "geojson_jerusalem_250",
    "lat": 31.791728,
    "lon": 35.222835,
    "name": "מקלט 615",
    "address": "",
    "city": "ירושלים",
    "capacity": "",
    "type": "מקלט ציבורי",
    "source": "gov",
    "category": "public",
    "addressEn": "Bezalel Ashkenazi St 23, Jerusalem"
  },
  {
    "id": "geojson_jerusalem_251",
    "lat": 31.790272,
    "lon": 35.223232,
    "name": "מקלט 619",
    "address": "",
    "city": "ירושלים",
    "capacity": "",
    "type": "מקלט ציבורי",
    "source": "gov",
    "category": "public",
    "addressEn": "Yehoshu'a Reichman St 37, Jerusalem"
  },
  {
    "id": "geojson_jerusalem_252",
    "lat": 31.790823,
    "lon": 35.219049,
    "name": "מקלט 620",
    "address": "",
    "city": "ירושלים",
    "capacity": "",
    "type": "מקלט ציבורי",
    "source": "gov",
    "category": "public",
    "addressEn": "Ezra St 17, Jerusalem"
  },
  {
    "id": "geojson_jerusalem_253",
    "lat": 31.789029,
    "lon": 35.218838,
    "name": "מקלט 621",
    "address": "",
    "city": "ירושלים",
    "capacity": "",
    "type": "מקלט ציבורי",
    "source": "gov",
    "category": "public",
    "addressEn": "Hagai St 11, Jerusalem"
  },
  {
    "id": "geojson_jerusalem_254",
    "lat": 31.787571,
    "lon": 35.220635,
    "name": "מקלט 623",
    "address": "",
    "city": "ירושלים",
    "capacity": "",
    "type": "מקלט ציבורי",
    "source": "gov",
    "category": "public",
    "addressEn": "Avodat Yisra'el St 28, Jerusalem"
  },
  {
    "id": "geojson_jerusalem_255",
    "lat": 31.789295,
    "lon": 35.221497,
    "name": "מקלט 624",
    "address": "",
    "city": "ירושלים",
    "capacity": "",
    "type": "מקלט ציבורי",
    "source": "gov",
    "category": "public",
    "addressEn": "Sha'arei Pina St 28, Jerusalem"
  },
  {
    "id": "geojson_jerusalem_256",
    "lat": 31.78875,
    "lon": 35.223126,
    "name": "מקלט 625",
    "address": "",
    "city": "ירושלים",
    "capacity": "",
    "type": "מקלט ציבורי",
    "source": "gov",
    "category": "public",
    "addressEn": "Yohanan Yosef Mizrahi St 1, Jerusalem"
  },
  {
    "id": "geojson_jerusalem_257",
    "lat": 31.788859,
    "lon": 35.2231,
    "name": "מקלט 626",
    "address": "",
    "city": "ירושלים",
    "capacity": "",
    "type": "מקלט ציבורי",
    "source": "gov",
    "category": "public",
    "addressEn": "Barukh Rapaport St 6, Jerusalem"
  },
  {
    "id": "geojson_jerusalem_258",
    "lat": 31.787387,
    "lon": 35.223261,
    "name": "מקלט 628",
    "address": "",
    "city": "ירושלים",
    "capacity": "",
    "type": "מקלט ציבורי",
    "source": "gov",
    "category": "public",
    "addressEn": "Ha-Rav Zonenfeld St 1, Jerusalem"
  },
  {
    "id": "geojson_jerusalem_259",
    "lat": 31.786778,
    "lon": 35.225656,
    "name": "מקלט 630",
    "address": "",
    "city": "ירושלים",
    "capacity": "",
    "type": "מקלט ציבורי",
    "source": "gov",
    "category": "public",
    "addressEn": "Shomrei Emunim 5, Jerusalem"
  },
  {
    "id": "geojson_jerusalem_260",
    "lat": 31.785826,
    "lon": 35.218761,
    "name": "מקלט 634",
    "address": "",
    "city": "ירושלים",
    "capacity": "",
    "type": "מקלט ציבורי",
    "source": "gov",
    "category": "public",
    "addressEn": "Natan Strauss St 17, Jerusalem"
  },
  {
    "id": "geojson_jerusalem_261",
    "lat": 31.78719,
    "lon": 35.22011,
    "name": "מקלט 635",
    "address": "",
    "city": "ירושלים",
    "capacity": "",
    "type": "מקלט ציבורי",
    "source": "gov",
    "category": "public",
    "addressEn": "Even Yehoshua St 7, Jerusalem"
  },
  {
    "id": "geojson_jerusalem_262",
    "lat": 31.787059,
    "lon": 35.21896,
    "name": "מקלט 637",
    "address": "",
    "city": "ירושלים",
    "capacity": "",
    "type": "מקלט ציבורי",
    "source": "gov",
    "category": "public",
    "addressEn": "Natan Strauss St 28, Jerusalem"
  },
  {
    "id": "geojson_jerusalem_263",
    "lat": 31.784998,
    "lon": 35.214906,
    "name": "מקלט 639",
    "address": "",
    "city": "ירושלים",
    "capacity": "",
    "type": "מקלט ציבורי",
    "source": "gov",
    "category": "public",
    "addressEn": "Jaffa St 72, Jerusalem"
  },
  {
    "id": "geojson_jerusalem_264",
    "lat": 31.788772,
    "lon": 35.21294,
    "name": "מקלט 641",
    "address": "",
    "city": "ירושלים",
    "capacity": "",
    "type": "מקלט ציבורי",
    "source": "gov",
    "category": "public",
    "addressEn": "Kfar Nahum St 6, Jerusalem"
  },
  {
    "id": "geojson_jerusalem_265",
    "lat": 31.785426,
    "lon": 35.209553,
    "name": "מקלט 646",
    "address": "",
    "city": "ירושלים",
    "capacity": "",
    "type": "מקלט ציבורי",
    "source": "gov",
    "category": "public",
    "addressEn": "Agripas St 149, Jerusalem"
  },
  {
    "id": "geojson_jerusalem_266",
    "lat": 31.780924,
    "lon": 35.218184,
    "name": "מקלט 651",
    "address": "",
    "city": "ירושלים",
    "capacity": "",
    "type": "מקלט ציבורי",
    "source": "gov",
    "category": "public",
    "addressEn": "Angelo Levi Bianchini St 8, Jerusalem"
  },
  {
    "id": "geojson_jerusalem_267",
    "lat": 31.783599,
    "lon": 35.225161,
    "name": "מקלט 652",
    "address": "",
    "city": "ירושלים",
    "capacity": "",
    "type": "מקלט ציבורי",
    "source": "gov",
    "category": "public",
    "addressEn": "Heleni ha-Malka St 34, Jerusalem"
  },
  {
    "id": "geojson_jerusalem_268",
    "lat": 31.78256,
    "lon": 35.225359,
    "name": "מקלט 654",
    "address": "",
    "city": "ירושלים",
    "capacity": "",
    "type": "מקלט ציבורי",
    "source": "gov",
    "category": "public",
    "addressEn": "Daniel St 7, Jerusalem"
  },
  {
    "id": "geojson_jerusalem_269",
    "lat": 31.775132,
    "lon": 35.213261,
    "name": "מקלט 658",
    "address": "",
    "city": "ירושלים",
    "capacity": "",
    "type": "מקלט ציבורי",
    "source": "gov",
    "category": "public",
    "addressEn": "Abarbanel St 20, Jerusalem"
  },
  {
    "id": "geojson_jerusalem_270",
    "lat": 31.756666,
    "lon": 35.209324,
    "name": "מקלט 663",
    "address": "",
    "city": "ירושלים",
    "capacity": "",
    "type": "מקלט ציבורי",
    "source": "gov",
    "category": "public",
    "addressEn": "Yossi Ben Yo'ezer St 21, Jerusalem"
  },
  {
    "id": "geojson_jerusalem_271",
    "lat": 31.767089,
    "lon": 35.210358,
    "name": "מקלט 667",
    "address": "",
    "city": "ירושלים",
    "capacity": "",
    "type": "מקלט ציבורי",
    "source": "gov",
    "category": "public",
    "addressEn": "HaPalmach St 25, Jerusalem"
  },
  {
    "id": "geojson_jerusalem_272",
    "lat": 31.767622,
    "lon": 35.209814,
    "name": "מקלט 668",
    "address": "",
    "city": "ירושלים",
    "capacity": "",
    "type": "מקלט ציבורי",
    "source": "gov",
    "category": "public",
    "addressEn": "גן ברודי, Chaim Brody St 15, Jerusalem"
  },
  {
    "id": "geojson_jerusalem_273",
    "lat": 31.76621,
    "lon": 35.208346,
    "name": "מקלט 669",
    "address": "",
    "city": "ירושלים",
    "capacity": "",
    "type": "מקלט ציבורי",
    "source": "gov",
    "category": "public",
    "addressEn": "Nili St 3, Jerusalem"
  },
  {
    "id": "geojson_jerusalem_274",
    "lat": 31.765792,
    "lon": 35.213121,
    "name": "מקלט 671",
    "address": "",
    "city": "ירושלים",
    "capacity": "",
    "type": "מקלט ציבורי",
    "source": "gov",
    "category": "public",
    "addressEn": "Kaf Tet be-November St 33, Jerusalem"
  },
  {
    "id": "geojson_jerusalem_275",
    "lat": 31.764488,
    "lon": 35.21661,
    "name": "מקלט 672",
    "address": "",
    "city": "ירושלים",
    "capacity": "",
    "type": "מקלט ציבורי",
    "source": "gov",
    "category": "public",
    "addressEn": "Haim Bajayo St 7, Jerusalem"
  },
  {
    "id": "geojson_jerusalem_276",
    "lat": 31.763334,
    "lon": 35.218087,
    "name": "מקלט 673",
    "address": "",
    "city": "ירושלים",
    "capacity": "",
    "type": "מקלט ציבורי",
    "source": "gov",
    "category": "public",
    "addressEn": "Rachel Imenu St 8, Jerusalem"
  },
  {
    "id": "geojson_jerusalem_277",
    "lat": 31.765635,
    "lon": 35.21767,
    "name": "מקלט 674",
    "address": "",
    "city": "ירושלים",
    "capacity": "",
    "type": "מקלט ציבורי",
    "source": "gov",
    "category": "public",
    "addressEn": "Klein St 5, Jerusalem"
  },
  {
    "id": "geojson_jerusalem_278",
    "lat": 31.763779,
    "lon": 35.220692,
    "name": "מקלט 677",
    "address": "",
    "city": "ירושלים",
    "capacity": "",
    "type": "מקלט ציבורי",
    "source": "gov",
    "category": "public",
    "addressEn": "Masaryk St 3, Jerusalem"
  },
  {
    "id": "geojson_jerusalem_279",
    "lat": 31.764784,
    "lon": 35.225602,
    "name": "מקלט 678",
    "address": "",
    "city": "ירושלים",
    "capacity": "",
    "type": "מקלט ציבורי",
    "source": "gov",
    "category": "public",
    "addressEn": "60 47, Jerusalem"
  },
  {
    "id": "geojson_jerusalem_280",
    "lat": 31.758259,
    "lon": 35.222094,
    "name": "מקלט 684",
    "address": "",
    "city": "ירושלים",
    "capacity": "",
    "type": "מקלט ציבורי",
    "source": "gov",
    "category": "public",
    "addressEn": "Mordekhai ha-Yehudi St 17, Jerusalem"
  },
  {
    "id": "geojson_jerusalem_281",
    "lat": 31.756582,
    "lon": 35.221222,
    "name": "מקלט 685",
    "address": "",
    "city": "ירושלים",
    "capacity": "",
    "type": "מקלט ציבורי",
    "source": "gov",
    "category": "public",
    "addressEn": "Yehuda St 3, Jerusalem"
  },
  {
    "id": "geojson_jerusalem_282",
    "lat": 31.75012,
    "lon": 35.220131,
    "name": "מקלט 689",
    "address": "",
    "city": "ירושלים",
    "capacity": "",
    "type": "מקלט ציבורי",
    "source": "gov",
    "category": "public",
    "addressEn": "Ben Gavriel St 7, Jerusalem"
  },
  {
    "id": "geojson_jerusalem_283",
    "lat": 31.748611,
    "lon": 35.222949,
    "name": "מקלט 690",
    "address": "",
    "city": "ירושלים",
    "capacity": "",
    "type": "מקלט ציבורי",
    "source": "gov",
    "category": "public",
    "addressEn": "Leib Yafe St 6, Jerusalem"
  },
  {
    "id": "geojson_jerusalem_284",
    "lat": 31.751505,
    "lon": 35.218399,
    "name": "מקלט 691",
    "address": "",
    "city": "ירושלים",
    "capacity": "",
    "type": "מקלט ציבורי",
    "source": "gov",
    "category": "public",
    "addressEn": "Beit Lehem Rd 99, Jerusalem"
  },
  {
    "id": "geojson_jerusalem_285",
    "lat": 31.761871,
    "lon": 35.214676,
    "name": "מקלט 695",
    "address": "",
    "city": "ירושלים",
    "capacity": "",
    "type": "מקלט ציבורי",
    "source": "gov",
    "category": "public",
    "addressEn": "Amatsya St 5, Jerusalem, 9314808"
  },
  {
    "id": "geojson_jerusalem_286",
    "lat": 31.764715,
    "lon": 35.204285,
    "name": "מקלט 700",
    "address": "",
    "city": "ירושלים",
    "capacity": "",
    "type": "מקלט ציבורי",
    "source": "gov",
    "category": "public",
    "addressEn": "Tchernichovsky St 50, Jerusalem"
  },
  {
    "id": "geojson_jerusalem_287",
    "lat": 31.759423,
    "lon": 35.206901,
    "name": "מקלט 702",
    "address": "",
    "city": "ירושלים",
    "capacity": "",
    "type": "מקלט ציבורי",
    "source": "gov",
    "category": "public",
    "addressEn": "Hizkiyahu HaMelech St 59, Jerusalem"
  },
  {
    "id": "geojson_jerusalem_288",
    "lat": 31.755552,
    "lon": 35.204444,
    "name": "מקלט 703",
    "address": "",
    "city": "ירושלים",
    "capacity": "",
    "type": "מקלט ציבורי",
    "source": "gov",
    "category": "public",
    "addressEn": "Yehuda ha-Nasi St 23, Jerusalem"
  },
  {
    "id": "geojson_jerusalem_289",
    "lat": 31.758587,
    "lon": 35.212241,
    "name": "מקלט 704",
    "address": "",
    "city": "ירושלים",
    "capacity": "",
    "type": "מקלט ציבורי",
    "source": "gov",
    "category": "public",
    "addressEn": "Ma'agalei Yavne St 5, Jerusalem"
  },
  {
    "id": "geojson_jerusalem_290",
    "lat": 31.755911,
    "lon": 35.208755,
    "name": "מקלט 707",
    "address": "",
    "city": "ירושלים",
    "capacity": "",
    "type": "מקלט ציבורי",
    "source": "gov",
    "category": "public",
    "addressEn": "Rashbag St 26, Jerusalem"
  },
  {
    "id": "geojson_jerusalem_291",
    "lat": 31.757361,
    "lon": 35.204212,
    "name": "מקלט 709",
    "address": "",
    "city": "ירושלים",
    "capacity": "",
    "type": "מקלט ציבורי",
    "source": "gov",
    "category": "public",
    "addressEn": "Bnei Betera St 2-8, Jerusalem"
  },
  {
    "id": "geojson_jerusalem_292",
    "lat": 31.755836,
    "lon": 35.20377,
    "name": "מקלט 710",
    "address": "",
    "city": "ירושלים",
    "capacity": "",
    "type": "מקלט ציבורי",
    "source": "gov",
    "category": "public",
    "addressEn": "Mikhvar St 3, Jerusalem"
  },
  {
    "id": "geojson_jerusalem_293",
    "lat": 31.75388,
    "lon": 35.205497,
    "name": "מקלט 712",
    "address": "",
    "city": "ירושלים",
    "capacity": "",
    "type": "מקלט ציבורי",
    "source": "gov",
    "category": "public",
    "addressEn": "Eli'ezer ha-Gadol St 6, Jerusalem"
  },
  {
    "id": "geojson_jerusalem_294",
    "lat": 31.755143,
    "lon": 35.199427,
    "name": "מקלט 714",
    "address": "",
    "city": "ירושלים",
    "capacity": "",
    "type": "מקלט ציבורי",
    "source": "gov",
    "category": "public",
    "addressEn": "Nitai HaArbeli St 10, Jerusalem"
  },
  {
    "id": "geojson_jerusalem_295",
    "lat": 31.760912,
    "lon": 35.200532,
    "name": "מקלט 715",
    "address": "",
    "city": "ירושלים",
    "capacity": "",
    "type": "מקלט ציבורי",
    "source": "gov",
    "category": "public",
    "addressEn": "Ha-Tkufa St 6, Jerusalem"
  },
  {
    "id": "geojson_jerusalem_296",
    "lat": 31.753742,
    "lon": 35.193159,
    "name": "מקלט 718",
    "address": "",
    "city": "ירושלים",
    "capacity": "",
    "type": "מקלט ציבורי",
    "source": "gov",
    "category": "public",
    "addressEn": "Hose San Martin St 17, Jerusalem"
  },
  {
    "id": "geojson_jerusalem_297",
    "lat": 31.758326,
    "lon": 35.177469,
    "name": "מקלט 724",
    "address": "",
    "city": "ירושלים",
    "capacity": "",
    "type": "מקלט ציבורי",
    "source": "gov",
    "category": "public",
    "addressEn": "Volta Ilit St 9, Jerusalem"
  },
  {
    "id": "geojson_jerusalem_298",
    "lat": 31.752282,
    "lon": 35.169878,
    "name": "מקלט 726",
    "address": "",
    "city": "ירושלים",
    "capacity": "",
    "type": "מקלט ציבורי",
    "source": "gov",
    "category": "public",
    "addressEn": "Costa Rica St 81, Jerusalem"
  },
  {
    "id": "geojson_jerusalem_299",
    "lat": 31.754317,
    "lon": 35.169736,
    "name": "מקלט 727",
    "address": "",
    "city": "ירושלים",
    "capacity": "",
    "type": "מקלט ציבורי",
    "source": "gov",
    "category": "public",
    "addressEn": "HaNurit St 25, Jerusalem, 9651030"
  },
  {
    "id": "geojson_jerusalem_300",
    "lat": 31.75411,
    "lon": 35.170179,
    "name": "מקלט 728",
    "address": "",
    "city": "ירושלים",
    "capacity": "",
    "type": "מקלט ציבורי",
    "source": "gov",
    "category": "public",
    "addressEn": "HaNurit St 23, Jerusalem, 9651030"
  },
  {
    "id": "geojson_jerusalem_301",
    "lat": 31.755434,
    "lon": 35.164962,
    "name": "מקלט 729",
    "address": "",
    "city": "ירושלים",
    "capacity": "",
    "type": "מקלט ציבורי",
    "source": "gov",
    "category": "public",
    "addressEn": "HaSaifan St 4, Jerusalem"
  },
  {
    "id": "geojson_jerusalem_302",
    "lat": 31.756485,
    "lon": 35.166242,
    "name": "מקלט 730",
    "address": "",
    "city": "ירושלים",
    "capacity": "",
    "type": "מקלט ציבורי",
    "source": "gov",
    "category": "public",
    "addressEn": "Ha-Republika ha-Dominikanit St 2, Jerusalem"
  },
  {
    "id": "geojson_jerusalem_303",
    "lat": 31.760242,
    "lon": 35.169919,
    "name": "מקלט 736",
    "address": "",
    "city": "ירושלים",
    "capacity": "",
    "type": "מקלט ציבורי",
    "source": "gov",
    "category": "public",
    "addressEn": "Yehiel Chlenov St 8, Jerusalem"
  },
  {
    "id": "geojson_jerusalem_304",
    "lat": 31.759582,
    "lon": 35.17139,
    "name": "מקלט 737",
    "address": "",
    "city": "ירושלים",
    "capacity": "",
    "type": "מקלט ציבורי",
    "source": "gov",
    "category": "public",
    "addressEn": "Janus Korczak St 25, Jerusalem"
  },
  {
    "id": "geojson_jerusalem_305",
    "lat": 31.76157,
    "lon": 35.172552,
    "name": "מקלט 738",
    "address": "",
    "city": "ירושלים",
    "capacity": "",
    "type": "מקלט ציבורי",
    "source": "gov",
    "category": "public",
    "addressEn": "Chile St 1, Jerusalem"
  },
  {
    "id": "geojson_jerusalem_306",
    "lat": 31.765346,
    "lon": 35.175009,
    "name": "מקלט 739",
    "address": "",
    "city": "ירושלים",
    "capacity": "",
    "type": "מקלט ציבורי",
    "source": "gov",
    "category": "public",
    "addressEn": "Tora Va'Avoda St 10, Jerusalem"
  },
  {
    "id": "geojson_jerusalem_307",
    "lat": 31.766527,
    "lon": 35.178165,
    "name": "מקלט 740",
    "address": "",
    "city": "ירושלים",
    "capacity": "",
    "type": "מקלט ציבורי",
    "source": "gov",
    "category": "public",
    "addressEn": "Israel Zangvill St 9, Jerusalem"
  },
  {
    "id": "geojson_jerusalem_308",
    "lat": 31.766819,
    "lon": 35.178115,
    "name": "מקלט 741",
    "address": "",
    "city": "ירושלים",
    "capacity": "",
    "type": "מקלט ציבורי",
    "source": "gov",
    "category": "public",
    "addressEn": "Israel Zangvill St 9, Jerusalem"
  },
  {
    "id": "geojson_jerusalem_309",
    "lat": 31.768801,
    "lon": 35.183917,
    "name": "מקלט 743",
    "address": "",
    "city": "ירושלים",
    "capacity": "",
    "type": "מקלט ציבורי",
    "source": "gov",
    "category": "public",
    "addressEn": "Ha-Khida St 16, Jerusalem"
  },
  {
    "id": "geojson_jerusalem_310",
    "lat": 31.774698,
    "lon": 35.189672,
    "name": "מקלט 744",
    "address": "",
    "city": "ירושלים",
    "capacity": "",
    "type": "מקלט ציבורי",
    "source": "gov",
    "category": "public",
    "addressEn": "He-Khaluts St 72, Jerusalem"
  },
  {
    "id": "geojson_jerusalem_311",
    "lat": 31.777082,
    "lon": 35.191496,
    "name": "מקלט 745",
    "address": "",
    "city": "ירושלים",
    "capacity": "",
    "type": "מקלט ציבורי",
    "source": "gov",
    "category": "public",
    "addressEn": "Ha-Banai St 23/1, Jerusalem"
  },
  {
    "id": "geojson_jerusalem_312",
    "lat": 31.778687,
    "lon": 35.190364,
    "name": "מקלט 746",
    "address": "",
    "city": "ירושלים",
    "capacity": "",
    "type": "מקלט ציבורי",
    "source": "gov",
    "category": "public",
    "addressEn": "He-Khaluts St 38, Jerusalem"
  },
  {
    "id": "geojson_jerusalem_313",
    "lat": 31.785362,
    "lon": 35.19674,
    "name": "מקלט 747",
    "address": "",
    "city": "ירושלים",
    "capacity": "",
    "type": "מקלט ציבורי",
    "source": "gov",
    "category": "public",
    "addressEn": "Kiryat Moshe St 5, Jerusalem, 9610501"
  },
  {
    "id": "geojson_jerusalem_314",
    "lat": 31.787479,
    "lon": 35.194756,
    "name": "מקלט 748",
    "address": "",
    "city": "ירושלים",
    "capacity": "",
    "type": "מקלט ציבורי",
    "source": "gov",
    "category": "public",
    "addressEn": "Sderot HaMe'iri 19, Jerusalem"
  },
  {
    "id": "geojson_jerusalem_315",
    "lat": 31.79547,
    "lon": 35.200089,
    "name": "מקלט 750",
    "address": "",
    "city": "ירושלים",
    "capacity": "",
    "type": "מקלט ציבורי",
    "source": "gov",
    "category": "public",
    "addressEn": "Zikhron Ya'akov St 4-16, Jerusalem"
  },
  {
    "id": "geojson_jerusalem_316",
    "lat": 31.785657,
    "lon": 35.226076,
    "name": "מקלט 753",
    "address": "",
    "city": "ירושלים",
    "capacity": "",
    "type": "מקלט ציבורי",
    "source": "gov",
    "category": "public",
    "addressEn": "Shivtei Israel St 48, Jerusalem"
  },
  {
    "id": "geojson_jerusalem_317",
    "lat": 31.755651,
    "lon": 35.195347,
    "name": "מקלט 755",
    "address": "",
    "city": "ירושלים",
    "capacity": "",
    "type": "מקלט ציבורי",
    "source": "gov",
    "category": "public",
    "addressEn": "Dov Hoz St 7, Jerusalem"
  },
  {
    "id": "geojson_jerusalem_318",
    "lat": 31.755895,
    "lon": 35.193983,
    "name": "מקלט 756",
    "address": "",
    "city": "ירושלים",
    "capacity": "",
    "type": "מקלט ציבורי",
    "source": "gov",
    "category": "public",
    "addressEn": "Hose San Martin St 3, Jerusalem"
  },
  {
    "id": "geojson_jerusalem_319",
    "lat": 31.775387,
    "lon": 35.216274,
    "name": "מקלט 758",
    "address": "",
    "city": "ירושלים",
    "capacity": "",
    "type": "מקלט ציבורי",
    "source": "gov",
    "category": "public",
    "addressEn": "AlHarizi St 4, Jerusalem"
  },
  {
    "id": "geojson_jerusalem_320",
    "lat": 31.759216,
    "lon": 35.166166,
    "name": "מקלט 803",
    "address": "",
    "city": "ירושלים",
    "capacity": "",
    "type": "מקלט ציבורי",
    "source": "gov",
    "category": "public",
    "addressEn": "Iceland St 34, Jerusalem"
  },
  {
    "id": "geojson_jerusalem_321",
    "lat": 31.769586,
    "lon": 35.217368,
    "name": "מקלט 807",
    "address": "",
    "city": "ירושלים",
    "capacity": "",
    "type": "מקלט ציבורי",
    "source": "gov",
    "category": "public",
    "addressEn": "Olifant St 3, Jerusalem"
  },
  {
    "id": "geojson_jerusalem_322",
    "lat": 31.790325,
    "lon": 35.191022,
    "name": "מקלט 808",
    "address": "",
    "city": "ירושלים",
    "capacity": "",
    "type": "מקלט ציבורי",
    "source": "gov",
    "category": "public",
    "addressEn": "Shlomo Elkabets St 24, Jerusalem"
  },
  {
    "id": "geojson_jerusalem_323",
    "lat": 31.759158,
    "lon": 35.176415,
    "name": "מקלט 814",
    "address": "",
    "city": "ירושלים",
    "capacity": "",
    "type": "מקלט ציבורי",
    "source": "gov",
    "category": "public",
    "addressEn": "Uruguay St 20, Jerusalem"
  },
  {
    "id": "geojson_jerusalem_324",
    "lat": 31.762066,
    "lon": 35.173923,
    "name": "מקלט 815",
    "address": "",
    "city": "ירושלים",
    "capacity": "",
    "type": "מקלט ציבורי",
    "source": "gov",
    "category": "public",
    "addressEn": "Borochov St 61, Jerusalem"
  },
  {
    "id": "geojson_jerusalem_325",
    "lat": 31.771079,
    "lon": 35.211834,
    "name": "מקלט 816",
    "address": "",
    "city": "ירושלים",
    "capacity": "",
    "type": "מקלט ציבורי",
    "source": "gov",
    "category": "public",
    "addressEn": "HaTibonim St 6, Jerusalem"
  },
  {
    "id": "geojson_jerusalem_326",
    "lat": 31.760168,
    "lon": 35.210653,
    "name": "מקלט 817",
    "address": "",
    "city": "ירושלים",
    "capacity": "",
    "type": "מקלט ציבורי",
    "source": "gov",
    "category": "public",
    "addressEn": "Rabbi Meir St 11, Jerusalem"
  },
  {
    "id": "geojson_jerusalem_327",
    "lat": 31.782358,
    "lon": 35.212956,
    "name": "מקלט 821",
    "address": "",
    "city": "ירושלים",
    "capacity": "",
    "type": "מקלט ציבורי",
    "source": "gov",
    "category": "public",
    "addressEn": "Ohel Moshe St 42, Jerusalem"
  },
  {
    "id": "geojson_jerusalem_328",
    "lat": 31.780282,
    "lon": 35.188505,
    "name": "מקלט 822",
    "address": "",
    "city": "ירושלים",
    "capacity": "",
    "type": "מקלט ציבורי",
    "source": "gov",
    "category": "public",
    "addressEn": "Kikar Denya Light Rail Station/Herzl Blvd, Jerusalem"
  },
  {
    "id": "geojson_jerusalem_329",
    "lat": 31.755191,
    "lon": 35.207635,
    "name": "מקלט 824",
    "address": "",
    "city": "ירושלים",
    "capacity": "",
    "type": "מקלט ציבורי",
    "source": "gov",
    "category": "public",
    "addressEn": "Yossi Ben Yo'ezer St 39, Jerusalem"
  },
  {
    "id": "geojson_jerusalem_330",
    "lat": 31.753414,
    "lon": 35.200702,
    "name": "מקלט 825",
    "address": "",
    "city": "ירושלים",
    "capacity": "",
    "type": "מקלט ציבורי",
    "source": "gov",
    "category": "public",
    "addressEn": "Kana'e HaGalil, Jerusalem"
  },
  {
    "id": "geojson_jerusalem_331",
    "lat": 31.78589,
    "lon": 35.224395,
    "name": "מקלט 826",
    "address": "",
    "city": "ירושלים",
    "capacity": "",
    "type": "מקלט ציבורי",
    "source": "gov",
    "category": "public",
    "addressEn": "Me'a She'arim St 102, Jerusalem"
  },
  {
    "id": "geojson_jerusalem_332",
    "lat": 31.758333,
    "lon": 35.167976,
    "name": "מקלט 827",
    "address": "",
    "city": "ירושלים",
    "capacity": "",
    "type": "מקלט ציבורי",
    "source": "gov",
    "category": "public",
    "addressEn": "Iceland St 16/13, Jerusalem"
  },
  {
    "id": "geojson_jerusalem_333",
    "lat": 31.759238,
    "lon": 35.212804,
    "name": "מקלט 828",
    "address": "",
    "city": "ירושלים",
    "capacity": "",
    "type": "מקלט ציבורי",
    "source": "gov",
    "category": "public",
    "addressEn": "Raban Yohanan ben Zakai St 10, Jerusalem"
  },
  {
    "id": "geojson_jerusalem_334",
    "lat": 31.753266,
    "lon": 35.165689,
    "name": "מקלט 829",
    "address": "",
    "city": "ירושלים",
    "capacity": "",
    "type": "מקלט ציבורי",
    "source": "gov",
    "category": "public",
    "addressEn": "Ha-Rakefet St 13, Jerusalem, 9650548"
  },
  {
    "id": "geojson_jerusalem_335",
    "lat": 31.790875,
    "lon": 35.216678,
    "name": "מקלט 830",
    "address": "",
    "city": "ירושלים",
    "capacity": "",
    "type": "מקלט ציבורי",
    "source": "gov",
    "category": "public",
    "addressEn": "Zeharya St 5, Jerusalem"
  },
  {
    "id": "geojson_jerusalem_336",
    "lat": 31.755462,
    "lon": 35.194339,
    "name": "מקלט 831",
    "address": "",
    "city": "ירושלים",
    "capacity": "",
    "type": "מקלט ציבורי",
    "source": "gov",
    "category": "public",
    "addressEn": "Rabi Tsadok St 12, Jerusalem, 9334212"
  },
  {
    "id": "geojson_jerusalem_337",
    "lat": 31.771845,
    "lon": 35.21531,
    "name": "מקלט 835",
    "address": "",
    "city": "ירושלים",
    "capacity": "",
    "type": "מקלט ציבורי",
    "source": "gov",
    "category": "public",
    "addressEn": "Shlomo Molkho St 5, Jerusalem, 9218511"
  },
  {
    "id": "geojson_jerusalem_338",
    "lat": 31.759291,
    "lon": 35.218276,
    "name": "מקלט 836",
    "address": "",
    "city": "ירושלים",
    "capacity": "",
    "type": "מקלט ציבורי",
    "source": "gov",
    "category": "public",
    "addressEn": "Re'uven St 18, Jerusalem"
  },
  {
    "id": "geojson_jerusalem_339",
    "lat": 31.793621,
    "lon": 35.220333,
    "name": "מקלט 837",
    "address": "",
    "city": "ירושלים",
    "capacity": "",
    "type": "מקלט ציבורי",
    "source": "gov",
    "category": "public",
    "addressEn": "Avinadav St 3, Jerusalem"
  },
  {
    "id": "geojson_jerusalem_340",
    "lat": 31.787133,
    "lon": 35.208473,
    "name": "מקלט 839",
    "address": "",
    "city": "ירושלים",
    "capacity": "",
    "type": "מקלט ציבורי",
    "source": "gov",
    "category": "public",
    "addressEn": "Jaffa St 159, Jerusalem"
  },
  {
    "id": "geojson_jerusalem_341",
    "lat": 31.790642,
    "lon": 35.220797,
    "name": "מקלט 841",
    "address": "",
    "city": "ירושלים",
    "capacity": "",
    "type": "מקלט ציבורי",
    "source": "gov",
    "category": "public",
    "addressEn": "Yisa Bracha St 47, Jerusalem"
  },
  {
    "id": "geojson_jerusalem_342",
    "lat": 31.752695,
    "lon": 35.195496,
    "name": "מקלט 842",
    "address": "",
    "city": "ירושלים",
    "capacity": "",
    "type": "מקלט ציבורי",
    "source": "gov",
    "category": "public",
    "addressEn": "Bar Yokhai St 47, Jerusalem"
  },
  {
    "id": "geojson_jerusalem_343",
    "lat": 31.757571,
    "lon": 35.167725,
    "name": "מקלט 901",
    "address": "",
    "city": "ירושלים",
    "capacity": "",
    "type": "מקלט ציבורי",
    "source": "gov",
    "category": "public",
    "addressEn": "Mexico St 22, Jerusalem"
  },
  {
    "id": "geojson_jerusalem_344",
    "lat": 31.754209,
    "lon": 35.168807,
    "name": "מקלט 902",
    "address": "",
    "city": "ירושלים",
    "capacity": "",
    "type": "מקלט ציבורי",
    "source": "gov",
    "category": "public",
    "addressEn": "HaAvivit St 1, Jerusalem"
  },
  {
    "id": "geojson_jerusalem_345",
    "lat": 31.768088,
    "lon": 35.162059,
    "name": "מקלט 903",
    "address": "",
    "city": "ירושלים",
    "capacity": "",
    "type": "מקלט ציבורי",
    "source": "gov",
    "category": "public",
    "addressEn": "Ein Kerem St 4, Jerusalem"
  },
  {
    "id": "geojson_jerusalem_346",
    "lat": 31.789595,
    "lon": 35.21048,
    "name": "מקלט 904",
    "address": "",
    "city": "ירושלים",
    "capacity": "",
    "type": "מקלט ציבורי",
    "source": "gov",
    "category": "public",
    "addressEn": "HaTurim St 28, Jerusalem"
  },
  {
    "id": "geojson_jerusalem_347",
    "lat": 31.75634,
    "lon": 35.170271,
    "name": "מקלט 905",
    "address": "",
    "city": "ירושלים",
    "capacity": "",
    "type": "מקלט ציבורי",
    "source": "gov",
    "category": "public",
    "addressEn": "Ha-Nerd St 6, Jerusalem, 9662639"
  },
  {
    "id": "geojson_jerusalem_348",
    "lat": 31.753149,
    "lon": 35.196349,
    "name": "מקלט 906",
    "address": "",
    "city": "ירושלים",
    "capacity": "",
    "type": "מקלט ציבורי",
    "source": "gov",
    "category": "public",
    "addressEn": "Hose San Martin St 30, Jerusalem"
  },
  {
    "id": "geojson_jerusalem_349",
    "lat": 31.789178,
    "lon": 35.225021,
    "name": "מקלט 907",
    "address": "",
    "city": "ירושלים",
    "capacity": "",
    "type": "מקלט ציבורי",
    "source": "gov",
    "category": "public",
    "addressEn": "Simtat HaEmuna 4, Jerusalem"
  },
  {
    "id": "geojson_jerusalem_350",
    "lat": 31.791572,
    "lon": 35.222308,
    "name": "מקלט 908",
    "address": "",
    "city": "ירושלים",
    "capacity": "",
    "type": "מקלט ציבורי",
    "source": "gov",
    "category": "public",
    "addressEn": "Yosef Karo St 35, Jerusalem"
  },
  {
    "id": "geojson_jerusalem_351",
    "lat": 31.788818,
    "lon": 35.208656,
    "name": "מקלט 909",
    "address": "",
    "city": "ירושלים",
    "capacity": "",
    "type": "מקלט ציבורי",
    "source": "gov",
    "category": "public",
    "addressEn": "Gesher HaHayim 10, Jerusalem"
  },
  {
    "id": "geojson_jerusalem_352",
    "lat": 31.790685,
    "lon": 35.214584,
    "name": "מקלט 910",
    "address": "",
    "city": "ירושלים",
    "capacity": "",
    "type": "מקלט ציבורי",
    "source": "gov",
    "category": "public",
    "addressEn": "Ovadya St 18, Jerusalem"
  },
  {
    "id": "geojson_jerusalem_353",
    "lat": 31.760862,
    "lon": 35.213257,
    "name": "מקלט 923",
    "address": "",
    "city": "ירושלים",
    "capacity": "",
    "type": "מקלט ציבורי",
    "source": "gov",
    "category": "public",
    "addressEn": "Reish Lakish St 4, Jerusalem"
  },
  {
    "id": "geojson_jerusalem_354",
    "lat": 31.786893,
    "lon": 35.216797,
    "name": "מקלט 928",
    "address": "",
    "city": "ירושלים",
    "capacity": "",
    "type": "מקלט ציבורי",
    "source": "gov",
    "category": "public",
    "addressEn": "HaRadbaz St 5, Jerusalem"
  },
  {
    "id": "geojson_jerusalem_355",
    "lat": 31.782612,
    "lon": 35.212305,
    "name": "מקלט 932",
    "address": "",
    "city": "ירושלים",
    "capacity": "",
    "type": "מקלט ציבורי",
    "source": "gov",
    "category": "public",
    "addressEn": "Zikhron Tuvya St 47, Jerusalem"
  },
  {
    "id": "geojson_jerusalem_356",
    "lat": 31.795618,
    "lon": 35.198698,
    "name": "מקלט 933",
    "address": "",
    "city": "ירושלים",
    "capacity": "",
    "type": "מקלט ציבורי",
    "source": "gov",
    "category": "public",
    "addressEn": "Ma'ane Simkha St 34, Jerusalem"
  },
  {
    "id": "geojson_jerusalem_357",
    "lat": 31.782191,
    "lon": 35.209959,
    "name": "מקלט 935",
    "address": "",
    "city": "ירושלים",
    "capacity": "",
    "type": "מקלט ציבורי",
    "source": "gov",
    "category": "public",
    "addressEn": "Kfar Bar'am St 49, Jerusalem"
  },
  {
    "id": "geojson_jerusalem_358",
    "lat": 31.761245,
    "lon": 35.209208,
    "name": "מקלט 937",
    "address": "",
    "city": "ירושלים",
    "capacity": "",
    "type": "מקלט ציבורי",
    "source": "gov",
    "category": "public",
    "addressEn": "Hizkiyahu HaMelech St 39, Jerusalem"
  },
  {
    "id": "geojson_jerusalem_359",
    "lat": 31.771665,
    "lon": 35.200352,
    "name": "מקלט 939",
    "address": "",
    "city": "ירושלים",
    "capacity": "",
    "type": "מקלט ציבורי",
    "source": "gov",
    "category": "public",
    "addressEn": "Nave Sha'anan St 8, Jerusalem"
  },
  {
    "id": "geojson_jerusalem_360",
    "lat": 31.750475,
    "lon": 35.219592,
    "name": "מקלט 940",
    "address": "",
    "city": "ירושלים",
    "capacity": "",
    "type": "מקלט ציבורי",
    "source": "gov",
    "category": "public",
    "addressEn": "Avraham Shalom Yehuda St 30, Jerusalem"
  },
  {
    "id": "geojson_jerusalem_361",
    "lat": 31.760521,
    "lon": 35.174018,
    "name": "מקלט 947",
    "address": "",
    "city": "ירושלים",
    "capacity": "",
    "type": "מקלט ציבורי",
    "source": "gov",
    "category": "public",
    "addressEn": "Haim Sireni St 16, Jerusalem"
  },
  {
    "id": "geojson_jerusalem_362",
    "lat": 31.765069,
    "lon": 35.206675,
    "name": "מקלט 949",
    "address": "",
    "city": "ירושלים",
    "capacity": "",
    "type": "מקלט ציבורי",
    "source": "gov",
    "category": "public",
    "addressEn": "Ha-Tayasim St 38, Jerusalem"
  },
  {
    "id": "geojson_jerusalem_363",
    "lat": 31.794267,
    "lon": 35.218171,
    "name": "מקלט 957",
    "address": "",
    "city": "ירושלים",
    "capacity": "",
    "type": "מקלט ציבורי",
    "source": "gov",
    "category": "public",
    "addressEn": "Evyatar HaCohen St 6, Jerusalem"
  },
  {
    "id": "geojson_jerusalem_364",
    "lat": 31.780151,
    "lon": 35.210626,
    "name": "מקלט 961",
    "address": "",
    "city": "ירושלים",
    "capacity": "",
    "type": "מקלט ציבורי",
    "source": "gov",
    "category": "public",
    "addressEn": "Tverya St 30, Jerusalem"
  },
  {
    "id": "geojson_jerusalem_365",
    "lat": 31.765206,
    "lon": 35.177435,
    "name": "מקלט 963",
    "address": "",
    "city": "ירושלים",
    "capacity": "",
    "type": "מקלט ציבורי",
    "source": "gov",
    "category": "public",
    "addressEn": "Israel Zangvill St 15, Jerusalem"
  },
  {
    "id": "geojson_jerusalem_366",
    "lat": 31.7569,
    "lon": 35.175358,
    "name": "מקלט 964",
    "address": "",
    "city": "ירושלים",
    "capacity": "",
    "type": "מקלט ציבורי",
    "source": "gov",
    "category": "public",
    "addressEn": "גרינוולד 8, ירושלים"
  },
  {
    "id": "geojson_jerusalem_367",
    "lat": 31.753324,
    "lon": 35.19577,
    "name": "מקלט 965",
    "address": "",
    "city": "ירושלים",
    "capacity": "",
    "type": "מקלט ציבורי",
    "source": "gov",
    "category": "public",
    "addressEn": "Hose San Martin St 28, Jerusalem"
  },
  {
    "id": "geojson_jerusalem_368",
    "lat": 31.758117,
    "lon": 35.208807,
    "name": "מקלט 967",
    "address": "",
    "city": "ירושלים",
    "capacity": "",
    "type": "מקלט ציבורי",
    "source": "gov",
    "category": "public",
    "addressEn": "Antignos St 10, Jerusalem"
  },
  {
    "id": "geojson_jerusalem_369",
    "lat": 31.756575,
    "lon": 35.207897,
    "name": "מקלט 969",
    "address": "",
    "city": "ירושלים",
    "capacity": "",
    "type": "מקלט ציבורי",
    "source": "gov",
    "category": "public",
    "addressEn": "Yossi Ben Yo'ezer St 20, Jerusalem"
  },
  {
    "id": "geojson_jerusalem_370",
    "lat": 31.767535,
    "lon": 35.211426,
    "name": "מקלט 971",
    "address": "",
    "city": "ירושלים",
    "capacity": "",
    "type": "מקלט ציבורי",
    "source": "gov",
    "category": "public",
    "addressEn": "HaPalmach St 20, Jerusalem"
  },
  {
    "id": "geojson_jerusalem_371",
    "lat": 31.775976,
    "lon": 35.213572,
    "name": "מקלט 972",
    "address": "",
    "city": "ירושלים",
    "capacity": "",
    "type": "מקלט ציבורי",
    "source": "gov",
    "category": "public",
    "addressEn": "Ibn Ezra St 10, Jerusalem"
  },
  {
    "id": "geojson_jerusalem_372",
    "lat": 31.777584,
    "lon": 35.215869,
    "name": "מקלט 973",
    "address": "",
    "city": "ירושלים",
    "capacity": "",
    "type": "מקלט ציבורי",
    "source": "gov",
    "category": "public",
    "addressEn": "המלך ג'ורג'/קק''ל, Jerusalem"
  },
  {
    "id": "geojson_jerusalem_373",
    "lat": 31.779283,
    "lon": 35.214471,
    "name": "מקלט 974",
    "address": "",
    "city": "ירושלים",
    "capacity": "",
    "type": "מקלט ציבורי",
    "source": "gov",
    "category": "public",
    "addressEn": "Shmu'el ha-Nagid St 13, Jerusalem"
  },
  {
    "id": "geojson_jerusalem_374",
    "lat": 31.7551,
    "lon": 35.191507,
    "name": "מקלט 976",
    "address": "",
    "city": "ירושלים",
    "capacity": "",
    "type": "מקלט ציבורי",
    "source": "gov",
    "category": "public",
    "addressEn": "Avraham Elmali'akh St 37, Jerusalem"
  },
  {
    "id": "geojson_jerusalem_375",
    "lat": 31.786186,
    "lon": 35.196468,
    "name": "מקלט 977",
    "address": "",
    "city": "ירושלים",
    "capacity": "",
    "type": "מקלט ציבורי",
    "source": "gov",
    "category": "public",
    "addressEn": "Gat St 12, Jerusalem"
  },
  {
    "id": "geojson_jerusalem_376",
    "lat": 31.786914,
    "lon": 35.195644,
    "name": "מקלט 978",
    "address": "",
    "city": "ירושלים",
    "capacity": "",
    "type": "מקלט ציבורי",
    "source": "gov",
    "category": "public",
    "addressEn": "Gat St 9, Jerusalem"
  },
  {
    "id": "geojson_jerusalem_377",
    "lat": 31.794015,
    "lon": 35.20068,
    "name": "מקלט 979",
    "address": "",
    "city": "ירושלים",
    "capacity": "",
    "type": "מקלט ציבורי",
    "source": "gov",
    "category": "public",
    "addressEn": "Rosh Pina St 3, Jerusalem"
  },
  {
    "id": "geojson_jerusalem_378",
    "lat": 31.755066,
    "lon": 35.215908,
    "name": "מקלט 980",
    "address": "",
    "city": "ירושלים",
    "capacity": "",
    "type": "מקלט ציבורי",
    "source": "gov",
    "category": "public",
    "addressEn": "Rivka St 25, Jerusalem"
  },
  {
    "id": "geojson_jerusalem_379",
    "lat": 31.75365,
    "lon": 35.191529,
    "name": "מקלט 981",
    "address": "",
    "city": "ירושלים",
    "capacity": "",
    "type": "מקלט ציבורי",
    "source": "gov",
    "category": "public",
    "addressEn": "Avraham Elmali'akh St 1, Jerusalem"
  },
  {
    "id": "geojson_jerusalem_380",
    "lat": 31.766301,
    "lon": 35.176107,
    "name": "מקלט 983",
    "address": "",
    "city": "ירושלים",
    "capacity": "",
    "type": "מקלט ציבורי",
    "source": "gov",
    "category": "public",
    "addressEn": "A.D. Gordon St 14, Jerusalem"
  },
  {
    "id": "geojson_jerusalem_381",
    "lat": 31.761208,
    "lon": 35.220512,
    "name": "מקלט 984",
    "address": "",
    "city": "ירושלים",
    "capacity": "",
    "type": "מקלט ציבורי",
    "source": "gov",
    "category": "public",
    "addressEn": "Efrayim St 5, Jerusalem"
  },
  {
    "id": "geojson_jerusalem_382",
    "lat": 31.785201,
    "lon": 35.217759,
    "name": "מקלט 985",
    "address": "",
    "city": "ירושלים",
    "capacity": "",
    "type": "מקלט ציבורי",
    "source": "gov",
    "category": "public",
    "addressEn": "Yisha'ayahu St 6, Jerusalem"
  },
  {
    "id": "geojson_jerusalem_383",
    "lat": 31.75869,
    "lon": 35.207689,
    "name": "מקלט 987",
    "address": "",
    "city": "ירושלים",
    "capacity": "",
    "type": "מקלט ציבורי",
    "source": "gov",
    "category": "public",
    "addressEn": "Raban Yohanan ben Zakai St 46, Jerusalem"
  },
  {
    "id": "geojson_jerusalem_384",
    "lat": 31.755289,
    "lon": 35.218668,
    "name": "מקלט 988",
    "address": "",
    "city": "ירושלים",
    "capacity": "",
    "type": "מקלט ציבורי",
    "source": "gov",
    "category": "public",
    "addressEn": "Tsipora St 11, Jerusalem, 9362532"
  },
  {
    "id": "geojson_jerusalem_385",
    "lat": 31.764051,
    "lon": 35.172193,
    "name": "מקלט 991",
    "address": "",
    "city": "ירושלים",
    "capacity": "",
    "type": "מקלט ציבורי",
    "source": "gov",
    "category": "public",
    "addressEn": "Brazil St 28, Jerusalem"
  },
  {
    "id": "geojson_jerusalem_386",
    "lat": 31.762868,
    "lon": 35.176523,
    "name": "מקלט 992",
    "address": "",
    "city": "ירושלים",
    "capacity": "",
    "type": "מקלט ציבורי",
    "source": "gov",
    "category": "public",
    "addressEn": "Ma'alot Yitshak Tsvi Etinger St 29, Jerusalem"
  },
  {
    "id": "geojson_jerusalem_387",
    "lat": 31.763468,
    "lon": 35.174161,
    "name": "מקלט 993",
    "address": "",
    "city": "ירושלים",
    "capacity": "",
    "type": "מקלט ציבורי",
    "source": "gov",
    "category": "public",
    "addressEn": "Moshe Kleinman St 2, Jerusalem"
  },
  {
    "id": "geojson_jerusalem_388",
    "lat": 31.756787,
    "lon": 35.21997,
    "name": "מקלט 995",
    "address": "",
    "city": "ירושלים",
    "capacity": "",
    "type": "מקלט ציבורי",
    "source": "gov",
    "category": "public",
    "addressEn": "Yehuda St 11, Jerusalem"
  },
  {
    "id": "geojson_jerusalem_389",
    "lat": 31.839545,
    "lon": 35.228464,
    "name": "מקלט 997",
    "address": "",
    "city": "ירושלים",
    "capacity": "",
    "type": "מקלט ציבורי",
    "source": "gov",
    "category": "public",
    "addressEn": "Taha Husein St 2, Jerusalem"
  },
  {
    "id": "geojson_jerusalem_390",
    "lat": 31.805111,
    "lon": 35.240876,
    "name": "מקלט 998",
    "address": "",
    "city": "ירושלים",
    "capacity": "",
    "type": "מקלט ציבורי",
    "source": "gov",
    "category": "public",
    "addressEn": "Bar Kochva St 63, Jerusalem"
  },
  {
    "id": "geojson_jerusalem_391",
    "lat": 31.752069,
    "lon": 35.170337,
    "name": "מקלט 726",
    "address": "",
    "city": "ירושלים",
    "capacity": "",
    "type": "מקלט ציבורי",
    "source": "gov",
    "category": "public",
    "addressEn": "Costa Rica St 77, Jerusalem"
  },
  {
    "id": "geojson_jerusalem_392",
    "lat": 31.751923,
    "lon": 35.170806,
    "name": "מקלט 726",
    "address": "",
    "city": "ירושלים",
    "capacity": "",
    "type": "מקלט ציבורי",
    "source": "gov",
    "category": "public",
    "addressEn": "Costa Rica St 75, Jerusalem"
  },
  {
    "id": "geojson_jerusalem_393",
    "lat": 31.759049,
    "lon": 35.164992,
    "name": "מקלט 734",
    "address": "",
    "city": "ירושלים",
    "capacity": "",
    "type": "מקלט ציבורי",
    "source": "gov",
    "category": "public",
    "addressEn": "Colombia St 16, Jerusalem"
  },
  {
    "id": "geojson_jerusalem_394",
    "lat": 31.759236,
    "lon": 35.176402,
    "name": "מקלט 814",
    "address": "",
    "city": "ירושלים",
    "capacity": "",
    "type": "מקלט ציבורי",
    "source": "gov",
    "category": "public",
    "addressEn": "Uruguay St 16, Jerusalem"
  },
  {
    "id": "geojson_jerusalem_395",
    "lat": 31.761918,
    "lon": 35.173759,
    "name": "מקלט 815",
    "address": "",
    "city": "ירושלים",
    "capacity": "",
    "type": "מקלט ציבורי",
    "source": "gov",
    "category": "public",
    "addressEn": "Borochov St 61, Jerusalem"
  },
  {
    "id": "geojson_jerusalem_396",
    "lat": 31.794111,
    "lon": 35.200922,
    "name": "מקלט 975",
    "address": "",
    "city": "ירושלים",
    "capacity": "",
    "type": "מקלט ציבורי",
    "source": "gov",
    "category": "public",
    "addressEn": "Rosh Pina St 6, Jerusalem"
  },
  {
    "id": "geojson_jerusalem_397",
    "lat": 31.793847,
    "lon": 35.201116,
    "name": "מקלט 975",
    "address": "",
    "city": "ירושלים",
    "capacity": "",
    "type": "מקלט ציבורי",
    "source": "gov",
    "category": "public",
    "addressEn": "Rosh Pina St 6, Jerusalem, 9447115"
  },
  {
    "id": "geojson_jerusalem_398",
    "lat": 31.793619,
    "lon": 35.20131,
    "name": "מקלט 975",
    "address": "",
    "city": "ירושלים",
    "capacity": "",
    "type": "מקלט ציבורי",
    "source": "gov",
    "category": "public",
    "addressEn": "Rishon Letsiyon St 9, Jerusalem"
  },
  {
    "id": "geojson_jerusalem_399",
    "lat": 31.79334,
    "lon": 35.201512,
    "name": "מקלט 975",
    "address": "",
    "city": "ירושלים",
    "capacity": "",
    "type": "מקלט ציבורי",
    "source": "gov",
    "category": "public",
    "addressEn": "Rishon Letsiyon St 10, Jerusalem"
  },
  {
    "id": "geojson_jerusalem_400",
    "lat": 31.792154,
    "lon": 35.222424,
    "name": "מקלט 616",
    "address": "",
    "city": "ירושלים",
    "capacity": "",
    "type": "מקלט ציבורי",
    "source": "gov",
    "category": "public",
    "addressEn": "Yoel St 42, Jerusalem"
  },
  {
    "id": "geojson_jerusalem_401",
    "lat": 31.790253,
    "lon": 35.224477,
    "name": "מקלט 617",
    "address": "",
    "city": "ירושלים",
    "capacity": "",
    "type": "מקלט ציבורי",
    "source": "gov",
    "category": "public",
    "addressEn": "Shim'on Rokah St 41, Jerusalem"
  },
  {
    "id": "geojson_jerusalem_402",
    "lat": 31.792443,
    "lon": 35.222396,
    "name": "מקלט 618",
    "address": "",
    "city": "ירושלים",
    "capacity": "",
    "type": "מקלט ציבורי",
    "source": "gov",
    "category": "public",
    "addressEn": "Shimshon Polanski St 12, Jerusalem"
  },
  {
    "id": "geojson_jerusalem_403",
    "lat": 31.786093,
    "lon": 35.22456,
    "name": "מקלט 629",
    "address": "",
    "city": "ירושלים",
    "capacity": "",
    "type": "מקלט ציבורי",
    "source": "gov",
    "category": "public",
    "addressEn": "Netsivin St 4, Jerusalem"
  },
  {
    "id": "geojson_jerusalem_404",
    "lat": 31.785381,
    "lon": 35.223705,
    "name": "מקלט 632",
    "address": "",
    "city": "ירושלים",
    "capacity": "",
    "type": "מקלט ציבורי",
    "source": "gov",
    "category": "public",
    "addressEn": "HaRav Shmuel Salant St 26, Jerusalem"
  },
  {
    "id": "geojson_jerusalem_405",
    "lat": 31.787416,
    "lon": 35.219565,
    "name": "מקלט 636",
    "address": "",
    "city": "ירושלים",
    "capacity": "",
    "type": "מקלט ציבורי",
    "source": "gov",
    "category": "public",
    "addressEn": "Levi Yitshak Miberditchev St 16, Jerusalem"
  },
  {
    "id": "geojson_jerusalem_406",
    "lat": 31.756009,
    "lon": 35.176007,
    "name": "מקלט 722",
    "address": "",
    "city": "ירושלים",
    "capacity": "",
    "type": "מקלט ציבורי",
    "source": "gov",
    "category": "public",
    "addressEn": "Avraham Stern St 65, Jerusalem, 9675051"
  },
  {
    "id": "geojson_jerusalem_407",
    "lat": 31.753716,
    "lon": 35.175767,
    "name": "מקלט 723",
    "address": "",
    "city": "ירושלים",
    "capacity": "",
    "type": "מקלט ציבורי",
    "source": "gov",
    "category": "public",
    "addressEn": "פארק שייקה, Dr Ringelblum St, Jerusalem"
  },
  {
    "id": "geojson_jerusalem_408",
    "lat": 31.758177,
    "lon": 35.164864,
    "name": "מקלט 732",
    "address": "",
    "city": "ירושלים",
    "capacity": "",
    "type": "מקלט ציבורי",
    "source": "gov",
    "category": "public",
    "addressEn": "Colombia St 7, Jerusalem"
  },
  {
    "id": "geojson_jerusalem_409",
    "lat": 31.782757,
    "lon": 35.225296,
    "name": "מקלט 751",
    "address": "",
    "city": "ירושלים",
    "capacity": "",
    "type": "מקלט ציבורי",
    "source": "gov",
    "category": "public",
    "addressEn": "Daniel St 5, Jerusalem"
  },
  {
    "id": "geojson_jerusalem_410",
    "lat": 31.781204,
    "lon": 35.226423,
    "name": "מקלט 752",
    "address": "",
    "city": "ירושלים",
    "capacity": "",
    "type": "מקלט ציבורי",
    "source": "gov",
    "category": "public",
    "addressEn": "Elisha St 14, Jerusalem"
  },
  {
    "id": "geojson_jerusalem_411",
    "lat": 31.761951,
    "lon": 35.210235,
    "name": "מקלט 805",
    "address": "",
    "city": "ירושלים",
    "capacity": "",
    "type": "מקלט ציבורי",
    "source": "gov",
    "category": "public",
    "addressEn": "Yordei ha-Sira St 29, Jerusalem"
  },
  {
    "id": "geojson_jerusalem_412",
    "lat": 31.772954,
    "lon": 35.210074,
    "name": "מקלט 809",
    "address": "",
    "city": "ירושלים",
    "capacity": "",
    "type": "מקלט ציבורי",
    "source": "gov",
    "category": "public",
    "addressEn": "סעדיה גאון 3, Jerusalem"
  },
  {
    "id": "geojson_jerusalem_413",
    "lat": 31.788336,
    "lon": 35.206643,
    "name": "מקלט 812",
    "address": "",
    "city": "ירושלים",
    "capacity": "",
    "type": "מקלט ציבורי",
    "source": "gov",
    "category": "public",
    "addressEn": "Jaffa St 210, Jerusalem"
  },
  {
    "id": "geojson_jerusalem_414",
    "lat": 31.755167,
    "lon": 35.182679,
    "name": "מקלט 813",
    "address": "",
    "city": "ירושלים",
    "capacity": "",
    "type": "מקלט ציבורי",
    "source": "gov",
    "category": "public",
    "addressEn": "Kdoshei Struma St 22, Jerusalem"
  },
  {
    "id": "geojson_jerusalem_415",
    "lat": 31.758452,
    "lon": 35.212687,
    "name": "מקלט 704",
    "address": "",
    "city": "ירושלים",
    "capacity": "",
    "type": "מקלט ציבורי",
    "source": "gov",
    "category": "public",
    "addressEn": "Rabbi Haninna St 108, Jerusalem"
  },
  {
    "id": "geojson_jerusalem_416",
    "lat": 31.785349,
    "lon": 35.205683,
    "name": "מקלט 647",
    "address": "",
    "city": "ירושלים",
    "capacity": "",
    "type": "מקלט ציבורי",
    "source": "gov",
    "category": "public",
    "addressEn": "Abba Eban St 3, Jerusalem"
  }
]