[
  {
    "id": "ירושלים-1",
    "lat": 31.79229011,
    "lon": 35.2176755,
    "name": "מקלט ציבורי מספר 609",
    "address": "ישא ברכה 23",
    "city": "ירושלים",
    "neighborhood": "בוכרים",
    "type": "מקלט",
    "source": "gov",
    "category": "public",
    "addressEn": ""
  },
  {
    "id": "ירושלים-2",
    "lat": 31.78987955,
    "lon": 35.22089024,
    "name": "מקלט ציבורי מספר 612",
    "address": "יואל 16",
    "city": "ירושלים",
    "neighborhood": "בוכרים",
    "type": "מקלט",
    "source": "gov",
    "category": "public",
    "addressEn": ""
  },
  {
    "id": "ירושלים-3",
    "lat": 31.79171933,
    "lon": 35.21486308,
    "name": "מקלט ציבורי מספר 910",
    "address": "עובדיה 22",
    "city": "ירושלים",
    "neighborhood": "בוכרים",
    "type": "מקלט",
    "source": "gov",
    "category": "public",
    "addressEn": ""
  },
  {
    "id": "ירושלים-4",
    "lat": 31.77512976,
    "lon": 35.19041839,
    "name": "מקלט ציבורי מספר 744",
    "address": "הבנאי 4",
    "city": "ירושלים",
    "neighborhood": "בית הכרם",
    "type": "מקלט",
    "source": "gov",
    "category": "public",
    "addressEn": ""
  },
  {
    "id": "ירושלים-5",
    "lat": 31.7775352,
    "lon": 35.1922193,
    "name": "מקלט ציבורי מספר 745",
    "address": "הבנאי 30",
    "city": "ירושלים",
    "neighborhood": "בית הכרם",
    "type": "מקלט",
    "source": "gov",
    "category": "public",
    "addressEn": ""
  },
  {
    "id": "ירושלים-6",
    "lat": 31.76591212,
    "lon": 35.18298046,
    "name": "מקלט ציבורי מספר 742",
    "address": "שערי תורה 7",
    "city": "ירושלים",
    "neighborhood": "בית וגן",
    "type": "מקלט",
    "source": "gov",
    "category": "public",
    "addressEn": ""
  },
  {
    "id": "ירושלים-7",
    "lat": 31.76926455,
    "lon": 35.18451955,
    "name": "מקלט ציבורי מספר 743",
    "address": "בית וגן 39",
    "city": "ירושלים",
    "neighborhood": "בית וגן",
    "type": "מקלט",
    "source": "gov",
    "category": "public",
    "addressEn": ""
  },
  {
    "id": "ירושלים-8",
    "lat": 31.79208743,
    "lon": 35.2232357,
    "name": "​מקלט ציבורי מספר 908",
    "address": "שמשון פולנסקי 22",
    "city": "ירושלים",
    "neighborhood": "בית ישראל",
    "type": "מקלט",
    "source": "gov",
    "category": "public",
    "addressEn": ""
  },
  {
    "id": "ירושלים-9",
    "lat": 31.79120318,
    "lon": 35.22139609,
    "name": "מקלט ציבורי מספר 841",
    "address": "יואל 25",
    "city": "ירושלים",
    "neighborhood": "בית ישראל",
    "type": "מקלט",
    "source": "gov",
    "category": "public",
    "addressEn": ""
  },
  {
    "id": "ירושלים-10",
    "lat": 31.76190746,
    "lon": 35.2212796,
    "name": "​מקלט ציבורי מספר 984",
    "address": "​יעל 11",
    "city": "ירושלים",
    "neighborhood": "בקעה",
    "type": "מקלט",
    "source": "gov",
    "category": "public",
    "addressEn": ""
  },
  {
    "id": "ירושלים-11",
    "lat": 31.7551778,
    "lon": 35.21700545,
    "name": "​מקלט ציבורי מספר 980",
    "address": "​רבקה 22",
    "city": "ירושלים",
    "neighborhood": "בקעה",
    "type": "מקלט",
    "source": "gov",
    "category": "public",
    "addressEn": ""
  },
  {
    "id": "ירושלים-12",
    "lat": 31.75755932,
    "lon": 35.220897,
    "name": "מקלט ציבורי מספר ​995",
    "address": "​לוי 3",
    "city": "ירושלים",
    "neighborhood": "בקעה",
    "type": "מקלט",
    "source": "gov",
    "category": "public",
    "addressEn": ""
  },
  {
    "id": "ירושלים-13",
    "lat": 31.75951784,
    "lon": 35.2188286,
    "name": "מקלט ציבורי מספר 682",
    "address": "ראובן 14",
    "city": "ירושלים",
    "neighborhood": "בקעה",
    "type": "מקלט",
    "source": "gov",
    "category": "public",
    "addressEn": ""
  },
  {
    "id": "ירושלים-14",
    "lat": 31.76002206,
    "lon": 35.2235262,
    "name": "מקלט ציבורי מספר 683",
    "address": "דרך חברון 54",
    "city": "ירושלים",
    "neighborhood": "בקעה",
    "type": "מקלט",
    "source": "gov",
    "category": "public",
    "addressEn": ""
  },
  {
    "id": "ירושלים-15",
    "lat": 31.75916119,
    "lon": 35.2229651,
    "name": "מקלט ציבורי מספר 684",
    "address": "אסתר המלכה 6",
    "city": "ירושלים",
    "neighborhood": "בקעה",
    "type": "מקלט",
    "source": "gov",
    "category": "public",
    "addressEn": ""
  },
  {
    "id": "ירושלים-16",
    "lat": 31.75722449,
    "lon": 35.22199465,
    "name": "מקלט ציבורי מספר 685",
    "address": "מרדכי היהודי 6",
    "city": "ירושלים",
    "neighborhood": "בקעה",
    "type": "מקלט",
    "source": "gov",
    "category": "public",
    "addressEn": ""
  },
  {
    "id": "ירושלים-17",
    "lat": 31.75968621,
    "lon": 35.21989257,
    "name": "מקלט ציבורי מספר 836",
    "address": "​מנשה 27",
    "city": "ירושלים",
    "neighborhood": "בקעה",
    "type": "מקלט",
    "source": "gov",
    "category": "public",
    "addressEn": ""
  },
  {
    "id": "ירושלים-18",
    "lat": 31.75959347,
    "lon": 35.2189683,
    "name": "מקלט ציבורי מספר 681",
    "address": "אפרים 8",
    "city": "ירושלים",
    "neighborhood": "בקעה",
    "type": "מקלט",
    "source": "gov",
    "category": "public",
    "addressEn": ""
  },
  {
    "id": "ירושלים-19",
    "lat": 31.78971852,
    "lon": 35.2196259,
    "name": "מקלט ציבורי מספר ​621",
    "address": "הושע 8",
    "city": "ירושלים",
    "neighborhood": "גאולה",
    "type": "מקלט",
    "source": "gov",
    "category": "public",
    "addressEn": ""
  },
  {
    "id": "ירושלים-20",
    "lat": 31.7877374,
    "lon": 35.21997837,
    "name": "מקלט ציבורי מספר 637 - מקלט נגיש",
    "address": "נחמן מברלסב 18",
    "city": "ירושלים",
    "neighborhood": "גאולה",
    "type": "מקלט",
    "source": "gov",
    "category": "public",
    "addressEn": ""
  },
  {
    "id": "ירושלים-21",
    "lat": 31.7915136,
    "lon": 35.21721693,
    "name": "מקלט ציבורי מספר 830",
    "address": "צפניה 25",
    "city": "ירושלים",
    "neighborhood": "גאולה",
    "type": "מקלט",
    "source": "gov",
    "category": "public",
    "addressEn": ""
  },
  {
    "id": "ירושלים-22",
    "lat": 31.79038842,
    "lon": 35.2112935,
    "name": "מקלט ציבורי מספר 904",
    "address": "הזית 7",
    "city": "ירושלים",
    "neighborhood": "גאולה",
    "type": "מקלט",
    "source": "gov",
    "category": "public",
    "addressEn": ""
  },
  {
    "id": "ירושלים-23",
    "lat": 31.76136372,
    "lon": 35.20108822,
    "name": "מקלט ציבורי מספר 715",
    "address": "דוד שמעוני 52",
    "city": "ירושלים",
    "neighborhood": "גבעת הורדים (רסקו)",
    "type": "מקלט",
    "source": "gov",
    "category": "public",
    "addressEn": ""
  },
  {
    "id": "ירושלים-24",
    "lat": 31.76547348,
    "lon": 35.20729202,
    "name": "מקלט ציבורי מספר 949",
    "address": "הטייסים 33",
    "city": "ירושלים",
    "neighborhood": "גבעת הורדים (רסקו)",
    "type": "מקלט",
    "source": "gov",
    "category": "public",
    "addressEn": ""
  },
  {
    "id": "ירושלים-25",
    "lat": 31.79066778,
    "lon": 35.19194561,
    "name": "מקלט ציבורי מספר 808",
    "address": "נג'ארה ישראל 27",
    "city": "ירושלים",
    "neighborhood": "גבעת שאול",
    "type": "מקלט",
    "source": "gov",
    "category": "public",
    "addressEn": ""
  },
  {
    "id": "ירושלים-26",
    "lat": 31.80571068,
    "lon": 35.24163187,
    "name": "מקלט ציבורי מספר 998",
    "address": "אבא ברדיצב 6",
    "city": "ירושלים",
    "neighborhood": "הגבעה הצרפתית",
    "type": "מקלט",
    "source": "gov",
    "category": "public",
    "addressEn": ""
  },
  {
    "id": "ירושלים-27",
    "lat": 31.76231446,
    "lon": 35.21556613,
    "name": "מקלט ציבורי מספר 695",
    "address": "אמציה 2",
    "city": "ירושלים",
    "neighborhood": "המושבה הגרמנית",
    "type": "מקלט",
    "source": "gov",
    "category": "public",
    "addressEn": ""
  },
  {
    "id": "ירושלים-28",
    "lat": 31.78741269,
    "lon": 35.21757937,
    "name": "מקלט ציבורי מספר 928",
    "address": "פרי חדש 8",
    "city": "ירושלים",
    "neighborhood": "זכרון משה",
    "type": "מקלט",
    "source": "gov",
    "category": "public",
    "addressEn": ""
  },
  {
    "id": "ירושלים-29",
    "lat": 31.77014346,
    "lon": 35.21700218,
    "name": "מקלט ציבורי מספר 807",
    "address": "דישראלי בנימין 7",
    "city": "ירושלים",
    "neighborhood": "טלביה",
    "type": "מקלט",
    "source": "gov",
    "category": "public",
    "addressEn": ""
  },
  {
    "id": "ירושלים-30",
    "lat": 31.78581751,
    "lon": 35.22459891,
    "name": "מקלט ציבורי מספר 632",
    "address": "מאה שערים 87",
    "city": "ירושלים",
    "neighborhood": "מאה שערים",
    "type": "מקלט",
    "source": "gov",
    "category": "public",
    "addressEn": ""
  },
  {
    "id": "ירושלים-31",
    "lat": 31.78649294,
    "lon": 35.2253953,
    "name": "מקלט ציבורי מספר 826",
    "address": "אוצר הספרים 6",
    "city": "ירושלים",
    "neighborhood": "מאה שערים",
    "type": "מקלט",
    "source": "gov",
    "category": "public",
    "addressEn": ""
  },
  {
    "id": "ירושלים-32",
    "lat": 31.78310141,
    "lon": 35.22640407,
    "name": "מקלט ציבורי מספר 751",
    "address": "העח 10",
    "city": "ירושלים",
    "neighborhood": "מורשה",
    "type": "מקלט",
    "source": "gov",
    "category": "public",
    "addressEn": ""
  },
  {
    "id": "ירושלים-33",
    "lat": 31.78155416,
    "lon": 35.22677275,
    "name": "מקלט ציבורי מספר 752",
    "address": "העח 21",
    "city": "ירושלים",
    "neighborhood": "מורשה",
    "type": "מקלט",
    "source": "gov",
    "category": "public",
    "addressEn": ""
  },
  {
    "id": "ירושלים-34",
    "lat": 31.78579592,
    "lon": 35.2270983,
    "name": "מקלט ציבורי מספר 753",
    "address": "חיל הנדסה 16",
    "city": "ירושלים",
    "neighborhood": "מורשה",
    "type": "מקלט",
    "source": "gov",
    "category": "public",
    "addressEn": ""
  },
  {
    "id": "ירושלים-35",
    "lat": 31.78336583,
    "lon": 35.20939807,
    "name": "מקלט ציבורי מספר 648",
    "address": "נהר פרת 15",
    "city": "ירושלים",
    "neighborhood": "מחנה יהודה",
    "type": "מקלט",
    "source": "gov",
    "category": "public",
    "addressEn": ""
  },
  {
    "id": "ירושלים-36",
    "lat": 31.78299762,
    "lon": 35.2136024,
    "name": "מקלט ציבורי מספר 821",
    "address": "עיניים למשפט 24",
    "city": "ירושלים",
    "neighborhood": "מחנה יהודה",
    "type": "מקלט",
    "source": "gov",
    "category": "public",
    "addressEn": ""
  },
  {
    "id": "ירושלים-37",
    "lat": 31.7827654,
    "lon": 35.21055875,
    "name": "מקלט ציבורי מספר 935",
    "address": "באר שבע 28",
    "city": "ירושלים",
    "neighborhood": "מחנה יהודה",
    "type": "מקלט",
    "source": "gov",
    "category": "public",
    "addressEn": ""
  },
  {
    "id": "ירושלים-38",
    "lat": 31.78076286,
    "lon": 35.21112847,
    "name": "מקלט ציבורי מספר 961",
    "address": "אבן ספיר 17",
    "city": "ירושלים",
    "neighborhood": "מחנה יהודה",
    "type": "מקלט",
    "source": "gov",
    "category": "public",
    "addressEn": ""
  },
  {
    "id": "ירושלים-39",
    "lat": 31.7556061,
    "lon": 35.1832669,
    "name": "מקלט ציבורי מספר 813",
    "address": "קדושי סטרומה 7",
    "city": "ירושלים",
    "neighborhood": "מנחת-מלחה",
    "type": "מקלט",
    "source": "gov",
    "category": "public",
    "addressEn": ""
  },
  {
    "id": "ירושלים-40",
    "lat": 31.78927688,
    "lon": 35.21424313,
    "name": "מקלט ציבורי מספר 641",
    "address": "כפר נחום 25",
    "city": "ירושלים",
    "neighborhood": "מקור ברוך",
    "type": "מקלט",
    "source": "gov",
    "category": "public",
    "addressEn": ""
  },
  {
    "id": "ירושלים-41",
    "lat": 31.790598,
    "lon": 35.21084562,
    "name": "מקלט ציבורי מספר 643",
    "address": "מלכי ישראל 73",
    "city": "ירושלים",
    "neighborhood": "מקור ברוך",
    "type": "מקלט",
    "source": "gov",
    "category": "public",
    "addressEn": ""
  },
  {
    "id": "ירושלים-42",
    "lat": 31.78892912,
    "lon": 35.20733752,
    "name": "מקלט ציבורי מספר 812",
    "address": "רשי 109",
    "city": "ירושלים",
    "neighborhood": "מקור ברוך",
    "type": "מקלט",
    "source": "gov",
    "category": "public",
    "addressEn": ""
  },
  {
    "id": "ירושלים-43",
    "lat": 31.78743779,
    "lon": 35.20879377,
    "name": "מקלט ציבורי מספר 839",
    "address": "תשבץ 14",
    "city": "ירושלים",
    "neighborhood": "מקור ברוך",
    "type": "מקלט",
    "source": "gov",
    "category": "public",
    "addressEn": ""
  },
  {
    "id": "ירושלים-44",
    "lat": 31.78882674,
    "lon": 35.20942097,
    "name": "מקלט ציבורי מספר 909",
    "address": "יהודה המכבי 7",
    "city": "ירושלים",
    "neighborhood": "מקור ברוך",
    "type": "מקלט",
    "source": "gov",
    "category": "public",
    "addressEn": ""
  },
  {
    "id": "ירושלים-45",
    "lat": 31.78596058,
    "lon": 35.21521827,
    "name": "מקלט ציבורי מספר 639",
    "address": "פינס מיכל 2",
    "city": "ירושלים",
    "neighborhood": "מרכז העיר",
    "type": "מקלט",
    "source": "gov",
    "category": "public",
    "addressEn": ""
  },
  {
    "id": "ירושלים-46",
    "lat": 31.78310575,
    "lon": 35.21285728,
    "name": "מקלט ציבורי מספר 932",
    "address": "הגלבוע 38",
    "city": "ירושלים",
    "neighborhood": "מרכז העיר",
    "type": "מקלט",
    "source": "gov",
    "category": "public",
    "addressEn": ""
  },
  {
    "id": "ירושלים-47",
    "lat": 31.77791035,
    "lon": 35.21665559,
    "name": "מקלט ציבורי מספר 973",
    "address": "הרב אבידע 5",
    "city": "ירושלים",
    "neighborhood": "מרכז העיר",
    "type": "מקלט",
    "source": "gov",
    "category": "public",
    "addressEn": ""
  },
  {
    "id": "ירושלים-48",
    "lat": 31.77988294,
    "lon": 35.2147312,
    "name": "מקלט ציבורי מספר 974",
    "address": "שמואל הנגיד 9",
    "city": "ירושלים",
    "neighborhood": "מרכז העיר",
    "type": "מקלט",
    "source": "gov",
    "category": "public",
    "addressEn": ""
  },
  {
    "id": "ירושלים-49",
    "lat": 31.78547133,
    "lon": 35.21869972,
    "name": "מקלט ציבורי מספר 985",
    "address": "שטראוס 13",
    "city": "ירושלים",
    "neighborhood": "מרכז העיר",
    "type": "מקלט",
    "source": "gov",
    "category": "public",
    "addressEn": ""
  },
  {
    "id": "ירושלים-50",
    "lat": 31.77218105,
    "lon": 35.20100356,
    "name": "מקלט ציבורי מספר 939 - מקלט נגיש",
    "address": "נוה שאנן 17",
    "city": "ירושלים",
    "neighborhood": "נווה שאנן",
    "type": "מקלט",
    "source": "gov",
    "category": "public",
    "addressEn": ""
  },
  {
    "id": "ירושלים-51",
    "lat": 31.77968218,
    "lon": 35.21119735,
    "name": "מקלט ציבורי מספר 657",
    "address": "צפת 21",
    "city": "ירושלים",
    "neighborhood": "נחלאות",
    "type": "מקלט",
    "source": "gov",
    "category": "public",
    "addressEn": ""
  },
  {
    "id": "ירושלים-52",
    "lat": 31.79755634,
    "lon": 35.21872527,
    "name": "מקלט ציבורי מספר 602",
    "address": "הסנהדרין 6",
    "city": "ירושלים",
    "neighborhood": "סנהדריה",
    "type": "מקלט",
    "source": "gov",
    "category": "public",
    "addressEn": ""
  },
  {
    "id": "ירושלים-53",
    "lat": 31.76842599,
    "lon": 35.16359315,
    "name": "מקלט ציבורי מספר 903",
    "address": "חומת הצלפים 82",
    "city": "ירושלים",
    "neighborhood": "עין כרם",
    "type": "מקלט",
    "source": "gov",
    "category": "public",
    "addressEn": ""
  },
  {
    "id": "ירושלים-54",
    "lat": 31.75304368,
    "lon": 35.17212095,
    "name": "מקלט ציבורי מספר 726",
    "address": "הנורית 123",
    "city": "ירושלים",
    "neighborhood": "עיר גנים",
    "type": "מקלט",
    "source": "gov",
    "category": "public",
    "addressEn": ""
  },
  {
    "id": "ירושלים-55",
    "lat": 31.75252344,
    "lon": 35.171552,
    "name": "מקלט ציבורי מספר 726ב'",
    "address": "הנורית 125",
    "city": "ירושלים",
    "neighborhood": "עיר גנים",
    "type": "מקלט",
    "source": "gov",
    "category": "public",
    "addressEn": ""
  },
  {
    "id": "ירושלים-56",
    "lat": 31.75457225,
    "lon": 35.17056825,
    "name": "מקלט ציבורי מספר 727",
    "address": "הנורית 104 (34)",
    "city": "ירושלים",
    "neighborhood": "עיר גנים",
    "type": "מקלט",
    "source": "gov",
    "category": "public",
    "addressEn": ""
  },
  {
    "id": "ירושלים-57",
    "lat": 31.754851,
    "lon": 35.17017787,
    "name": "מקלט ציבורי מספר 728",
    "address": "הנורית 102 (32)",
    "city": "ירושלים",
    "neighborhood": "עיר גנים",
    "type": "מקלט",
    "source": "gov",
    "category": "public",
    "addressEn": ""
  },
  {
    "id": "ירושלים-58",
    "lat": 31.75350048,
    "lon": 35.166039,
    "name": "מקלט ציבורי מספר 829",
    "address": "הרקפת 9",
    "city": "ירושלים",
    "neighborhood": "עיר גנים",
    "type": "מקלט",
    "source": "gov",
    "category": "public",
    "addressEn": ""
  },
  {
    "id": "ירושלים-59",
    "lat": 31.75303908,
    "lon": 35.16703205,
    "name": "מקלט ציבורי מספר 840 - מקלט נגיש",
    "address": "קוסטה ריקה 70",
    "city": "ירושלים",
    "neighborhood": "עיר גנים",
    "type": "מקלט",
    "source": "gov",
    "category": "public",
    "addressEn": ""
  },
  {
    "id": "ירושלים-60",
    "lat": 31.75927128,
    "lon": 35.16653153,
    "name": "מקלט ציבורי מספר 901",
    "address": "איסלנד 13",
    "city": "ירושלים",
    "neighborhood": "עיר גנים",
    "type": "מקלט",
    "source": "gov",
    "category": "public",
    "addressEn": ""
  },
  {
    "id": "ירושלים-61",
    "lat": 31.75487408,
    "lon": 35.16903666,
    "name": "מקלט ציבורי מספר 902",
    "address": "הנורית 29",
    "city": "ירושלים",
    "neighborhood": "עיר גנים",
    "type": "מקלט",
    "source": "gov",
    "category": "public",
    "addressEn": ""
  },
  {
    "id": "ירושלים-62",
    "lat": 31.75717138,
    "lon": 35.1708159,
    "name": "מקלט ציבורי מספר 905",
    "address": "הנרד 1",
    "city": "ירושלים",
    "neighborhood": "עיר גנים",
    "type": "מקלט",
    "source": "gov",
    "category": "public",
    "addressEn": ""
  },
  {
    "id": "ירושלים-63",
    "lat": 31.75270968,
    "lon": 35.17106527,
    "name": "מקלט ציבורי מספר 726א'",
    "address": "הנורית 124",
    "city": "ירושלים",
    "neighborhood": "עיר גנים",
    "type": "מקלט",
    "source": "gov",
    "category": "public",
    "addressEn": ""
  },
  {
    "id": "ירושלים-64",
    "lat": 31.76565605,
    "lon": 35.21287922,
    "name": "מקלט ציבורי מספר 670",
    "address": "בוסתנאי 9",
    "city": "ירושלים",
    "neighborhood": "עמק רפאים",
    "type": "מקלט",
    "source": "gov",
    "category": "public",
    "addressEn": ""
  },
  {
    "id": "ירושלים-65",
    "lat": 31.76506375,
    "lon": 35.21736907,
    "name": "מקלט ציבורי מספר 672",
    "address": "רות 10",
    "city": "ירושלים",
    "neighborhood": "עמק רפאים",
    "type": "מקלט",
    "source": "gov",
    "category": "public",
    "addressEn": ""
  },
  {
    "id": "ירושלים-66",
    "lat": 31.78075326,
    "lon": 35.21629892,
    "name": "מקלט ציבורי מספר 673",
    "address": "מלל 3",
    "city": "ירושלים",
    "neighborhood": "עמק רפאים",
    "type": "מקלט",
    "source": "gov",
    "category": "public",
    "addressEn": ""
  },
  {
    "id": "ירושלים-67",
    "lat": 31.76617023,
    "lon": 35.218209,
    "name": "מקלט ציבורי מספר 674",
    "address": "באכר 7",
    "city": "ירושלים",
    "neighborhood": "עמק רפאים",
    "type": "מקלט",
    "source": "gov",
    "category": "public",
    "addressEn": ""
  },
  {
    "id": "ירושלים-68",
    "lat": 31.76455263,
    "lon": 35.22099657,
    "name": "מקלט ציבורי מספר 676",
    "address": "אמיל זולא 6",
    "city": "ירושלים",
    "neighborhood": "עמק רפאים",
    "type": "מקלט",
    "source": "gov",
    "category": "public",
    "addressEn": ""
  },
  {
    "id": "ירושלים-69",
    "lat": 31.76403005,
    "lon": 35.22126489,
    "name": "מקלט ציבורי מספר 677",
    "address": "וינדהם דידס 6",
    "city": "ירושלים",
    "neighborhood": "עמק רפאים",
    "type": "מקלט",
    "source": "gov",
    "category": "public",
    "addressEn": ""
  },
  {
    "id": "ירושלים-70",
    "lat": 31.76274013,
    "lon": 35.21468592,
    "name": "מקלט ציבורי מספר 693",
    "address": "יותם 9",
    "city": "ירושלים",
    "neighborhood": "עמק רפאים",
    "type": "מקלט",
    "source": "gov",
    "category": "public",
    "addressEn": ""
  },
  {
    "id": "ירושלים-71",
    "lat": 31.760935007382873,
    "lon": 35.215828074320804,
    "name": "מקלט ציבורי מספר 697",
    "address": "עמק רפאים 68",
    "city": "ירושלים",
    "neighborhood": "עמק רפאים",
    "type": "מקלט",
    "source": "gov",
    "category": "public",
    "addressEn": ""
  },
  {
    "id": "ירושלים-72",
    "lat": 31.76488511,
    "lon": 35.21965502,
    "name": "מקלט ציבורי מספר 804",
    "address": "המליץ 8",
    "city": "ירושלים",
    "neighborhood": "עמק רפאים",
    "type": "מקלט",
    "source": "gov",
    "category": "public",
    "addressEn": ""
  },
  {
    "id": "ירושלים-73",
    "lat": 31.75967715,
    "lon": 35.20753835,
    "name": "מקלט ציבורי מספר 702",
    "address": "חלפתא 12",
    "city": "ירושלים",
    "neighborhood": "קטמון",
    "type": "מקלט",
    "source": "gov",
    "category": "public",
    "addressEn": ""
  },
  {
    "id": "ירושלים-74",
    "lat": 31.75450818,
    "lon": 35.19382965,
    "name": "מקלט ציבורי מספר 718 - מקלט נגיש",
    "address": "רבי צדוק 6",
    "city": "ירושלים",
    "neighborhood": "קטמון",
    "type": "מקלט",
    "source": "gov",
    "category": "public",
    "addressEn": ""
  },
  {
    "id": "ירושלים-75",
    "lat": 31.75640292,
    "lon": 35.19666642,
    "name": "מקלט ציבורי מספר 755",
    "address": "דב הוז 3",
    "city": "ירושלים",
    "neighborhood": "קטמון",
    "type": "מקלט",
    "source": "gov",
    "category": "public",
    "addressEn": ""
  },
  {
    "id": "ירושלים-76",
    "lat": 31.75628558,
    "lon": 35.1946299,
    "name": "מקלט ציבורי מספר 756",
    "address": "סן מרטין 1",
    "city": "ירושלים",
    "neighborhood": "קטמון",
    "type": "מקלט",
    "source": "gov",
    "category": "public",
    "addressEn": ""
  },
  {
    "id": "ירושלים-77",
    "lat": 31.75571857,
    "lon": 35.19787365,
    "name": "מקלט ציבורי מספר 757",
    "address": "השומר 5",
    "city": "ירושלים",
    "neighborhood": "קטמון",
    "type": "מקלט",
    "source": "gov",
    "category": "public",
    "addressEn": ""
  },
  {
    "id": "ירושלים-78",
    "lat": 31.76235525,
    "lon": 35.21082471,
    "name": "מקלט ציבורי מספר 805",
    "address": "יורדי הסירה 21",
    "city": "ירושלים",
    "neighborhood": "קטמון",
    "type": "מקלט",
    "source": "gov",
    "category": "public",
    "addressEn": ""
  },
  {
    "id": "ירושלים-79",
    "lat": 31.76077592,
    "lon": 35.21231381,
    "name": "מקלט ציבורי מספר 817",
    "address": "בן גמלא יהושע 7",
    "city": "ירושלים",
    "neighborhood": "קטמון",
    "type": "מקלט",
    "source": "gov",
    "category": "public",
    "addressEn": ""
  },
  {
    "id": "ירושלים-80",
    "lat": 31.7554334,
    "lon": 35.2086146,
    "name": "מקלט ציבורי מספר 824",
    "address": "רשבג 31",
    "city": "ירושלים",
    "neighborhood": "קטמון",
    "type": "מקלט",
    "source": "gov",
    "category": "public",
    "addressEn": ""
  },
  {
    "id": "ירושלים-81",
    "lat": 31.75360963,
    "lon": 35.20166873,
    "name": "מקלט ציבורי מספר 825",
    "address": "אלעזר בן יאיר 24",
    "city": "ירושלים",
    "neighborhood": "קטמון",
    "type": "מקלט",
    "source": "gov",
    "category": "public",
    "addressEn": ""
  },
  {
    "id": "ירושלים-82",
    "lat": 31.75971235,
    "lon": 35.21328746,
    "name": "מקלט ציבורי מספר 828",
    "address": "הרב חסדא 10",
    "city": "ירושלים",
    "neighborhood": "קטמון",
    "type": "מקלט",
    "source": "gov",
    "category": "public",
    "addressEn": ""
  },
  {
    "id": "ירושלים-83",
    "lat": 31.7562636,
    "lon": 35.1954492,
    "name": "מקלט ציבורי מספר 831",
    "address": "דב הוז 7",
    "city": "ירושלים",
    "neighborhood": "קטמון",
    "type": "מקלט",
    "source": "gov",
    "category": "public",
    "addressEn": ""
  },
  {
    "id": "ירושלים-84",
    "lat": 31.75311816,
    "lon": 35.19538627,
    "name": "מקלט ציבורי מספר 842 - מקלט נגיש",
    "address": "בר יוחאי 8",
    "city": "ירושלים",
    "neighborhood": "קטמון",
    "type": "מקלט",
    "source": "gov",
    "category": "public",
    "addressEn": ""
  },
  {
    "id": "ירושלים-85",
    "lat": 31.75430501,
    "lon": 35.19884543,
    "name": "מקלט ציבורי מספר 906",
    "address": "בר יוחאי 2",
    "city": "ירושלים",
    "neighborhood": "קטמון",
    "type": "מקלט",
    "source": "gov",
    "category": "public",
    "addressEn": ""
  },
  {
    "id": "ירושלים-86",
    "lat": 31.76199993734908,
    "lon": 35.21387974927489,
    "name": "מקלט ציבורי מספר 923",
    "address": "אלעזר המודעי 15",
    "city": "ירושלים",
    "neighborhood": "קטמון",
    "type": "מקלט",
    "source": "gov",
    "category": "public",
    "addressEn": ""
  },
  {
    "id": "ירושלים-87",
    "lat": 31.76174784,
    "lon": 35.20969289,
    "name": "מקלט ציבורי מספר 937",
    "address": "חזקיהו המלך 38",
    "city": "ירושלים",
    "neighborhood": "קטמון",
    "type": "מקלט",
    "source": "gov",
    "category": "public",
    "addressEn": ""
  },
  {
    "id": "ירושלים-88",
    "lat": 31.75373649,
    "lon": 35.19636583,
    "name": "מקלט ציבורי מספר 965",
    "address": "יצחק שדה 7",
    "city": "ירושלים",
    "neighborhood": "קטמון",
    "type": "מקלט",
    "source": "gov",
    "category": "public",
    "addressEn": ""
  },
  {
    "id": "ירושלים-89",
    "lat": 31.75888667,
    "lon": 35.209264,
    "name": "מקלט ציבורי מספר 967",
    "address": "אנטיגונוס 7",
    "city": "ירושלים",
    "neighborhood": "קטמון",
    "type": "מקלט",
    "source": "gov",
    "category": "public",
    "addressEn": ""
  },
  {
    "id": "ירושלים-90",
    "lat": 31.75687008,
    "lon": 35.20875076,
    "name": "מקלט ציבורי מספר 969",
    "address": "יוסי בן יועזר 16",
    "city": "ירושלים",
    "neighborhood": "קטמון",
    "type": "מקלט",
    "source": "gov",
    "category": "public",
    "addressEn": ""
  },
  {
    "id": "ירושלים-91",
    "lat": 31.75536971,
    "lon": 35.19197755,
    "name": "מקלט ציבורי מספר 976 - מקלט נגיש",
    "address": "אלמליח אברהם 41",
    "city": "ירושלים",
    "neighborhood": "קטמון",
    "type": "מקלט",
    "source": "gov",
    "category": "public",
    "addressEn": ""
  },
  {
    "id": "ירושלים-92",
    "lat": 31.75434157,
    "lon": 35.1920082,
    "name": "מקלט ציבורי מספר 981",
    "address": "אלמליח אברהם 27",
    "city": "ירושלים",
    "neighborhood": "קטמון",
    "type": "מקלט",
    "source": "gov",
    "category": "public",
    "addressEn": ""
  },
  {
    "id": "ירושלים-93",
    "lat": 31.75922677,
    "lon": 35.2089806,
    "name": "מקלט ציבורי מספר 987 - מקלט נגיש",
    "address": "יוחנן בן זכאי 38",
    "city": "ירושלים",
    "neighborhood": "קטמון",
    "type": "מקלט",
    "source": "gov",
    "category": "public",
    "addressEn": ""
  },
  {
    "id": "ירושלים-94",
    "lat": 31.76616707,
    "lon": 35.21380395,
    "name": "מקלט ציבורי מספר 671 - מקלט נגיש",
    "address": "כט בנובמבר 22",
    "city": "ירושלים",
    "neighborhood": "קטמון הישנה",
    "type": "מקלט",
    "source": "gov",
    "category": "public",
    "addressEn": ""
  },
  {
    "id": "ירושלים-95",
    "lat": 31.76129246,
    "lon": 35.21325687,
    "name": "מקלט ציבורי מספר 696",
    "address": "ריש לקיש 3",
    "city": "ירושלים",
    "neighborhood": "קטמון הישנה",
    "type": "מקלט",
    "source": "gov",
    "category": "public",
    "addressEn": ""
  },
  {
    "id": "ירושלים-96",
    "lat": 31.7563287,
    "lon": 35.20489024,
    "name": "מקלט ציבורי מספר 703",
    "address": "יוחנן בן זכאי 53",
    "city": "ירושלים",
    "neighborhood": "קטמון הישנה",
    "type": "מקלט",
    "source": "gov",
    "category": "public",
    "addressEn": ""
  },
  {
    "id": "ירושלים-97",
    "lat": 31.75547995,
    "lon": 35.17732316,
    "name": "מקלט ציבורי מספר 721",
    "address": "אורוגוואי 29",
    "city": "ירושלים",
    "neighborhood": "קריית היובל",
    "type": "מקלט",
    "source": "gov",
    "category": "public",
    "addressEn": ""
  },
  {
    "id": "ירושלים-98",
    "lat": 31.75637467,
    "lon": 35.17666523,
    "name": "מקלט ציבורי מספר 722",
    "address": "שטרן אברהם 67",
    "city": "ירושלים",
    "neighborhood": "קריית היובל",
    "type": "מקלט",
    "source": "gov",
    "category": "public",
    "addressEn": ""
  },
  {
    "id": "ירושלים-99",
    "lat": 31.75424528,
    "lon": 35.17664425,
    "name": "מקלט ציבורי מספר 723- מקלט נגיש",
    "address": "שטרן אברהם 51",
    "city": "ירושלים",
    "neighborhood": "קריית היובל",
    "type": "מקלט",
    "source": "gov",
    "category": "public",
    "addressEn": ""
  },
  {
    "id": "ירושלים-100",
    "lat": 31.75837336,
    "lon": 35.17758566,
    "name": "מקלט ציבורי מספר 724",
    "address": "וולטה העלית 9",
    "city": "ירושלים",
    "neighborhood": "קריית היובל",
    "type": "מקלט",
    "source": "gov",
    "category": "public",
    "addressEn": ""
  },
  {
    "id": "ירושלים-101",
    "lat": 31.76074271,
    "lon": 35.1704658,
    "name": "מקלט ציבורי מספר 736",
    "address": "צ'ילה 8",
    "city": "ירושלים",
    "neighborhood": "קריית היובל",
    "type": "מקלט",
    "source": "gov",
    "category": "public",
    "addressEn": ""
  },
  {
    "id": "ירושלים-102",
    "lat": 31.76016281,
    "lon": 35.1720983,
    "name": "מקלט ציבורי מספר 737 - מקלט נגיש",
    "address": "יאנוש קורצ'אק 32",
    "city": "ירושלים",
    "neighborhood": "קריית היובל",
    "type": "מקלט",
    "source": "gov",
    "category": "public",
    "addressEn": ""
  },
  {
    "id": "ירושלים-103",
    "lat": 31.76217764,
    "lon": 35.17317009,
    "name": "מקלט ציבורי מספר 738",
    "address": "אנילביץ 78",
    "city": "ירושלים",
    "neighborhood": "קריית היובל",
    "type": "מקלט",
    "source": "gov",
    "category": "public",
    "addressEn": ""
  },
  {
    "id": "ירושלים-104",
    "lat": 31.76613405,
    "lon": 35.17604607,
    "name": "מקלט ציבורי מספר 739",
    "address": "שמורק 3",
    "city": "ירושלים",
    "neighborhood": "קריית היובל",
    "type": "מקלט",
    "source": "gov",
    "category": "public",
    "addressEn": ""
  },
  {
    "id": "ירושלים-105",
    "lat": 31.75925474,
    "lon": 35.17712367,
    "name": "מקלט ציבורי מספר 814",
    "address": "וולטה עלית 3",
    "city": "ירושלים",
    "neighborhood": "קריית היובל",
    "type": "מקלט",
    "source": "gov",
    "category": "public",
    "addressEn": ""
  },
  {
    "id": "ירושלים-106",
    "lat": 31.75925474,
    "lon": 35.17712367,
    "name": "מקלט ציבורי מספר 814א",
    "address": "וולטה העלית 3",
    "city": "ירושלים",
    "neighborhood": "קריית היובל",
    "type": "מקלט",
    "source": "gov",
    "category": "public",
    "addressEn": ""
  },
  {
    "id": "ירושלים-107",
    "lat": 31.7653248,
    "lon": 35.1752983,
    "name": "מקלט ציבורי מספר 815",
    "address": "רבינוביץ אהרון 2",
    "city": "ירושלים",
    "neighborhood": "קריית היובל",
    "type": "מקלט",
    "source": "gov",
    "category": "public",
    "addressEn": ""
  },
  {
    "id": "ירושלים-108",
    "lat": 31.76531568,
    "lon": 35.1752983,
    "name": "מקלט ציבורי מספר 815א",
    "address": "רבינוביץ אהרון 2",
    "city": "ירושלים",
    "neighborhood": "קריית היובל",
    "type": "מקלט",
    "source": "gov",
    "category": "public",
    "addressEn": ""
  },
  {
    "id": "ירושלים-109",
    "lat": 31.76583584,
    "lon": 35.1773224,
    "name": "מקלט ציבורי מספר 963",
    "address": "זנגויל ישראל 11",
    "city": "ירושלים",
    "neighborhood": "קריית היובל",
    "type": "מקלט",
    "source": "gov",
    "category": "public",
    "addressEn": ""
  },
  {
    "id": "ירושלים-110",
    "lat": 31.75728607,
    "lon": 35.1760216,
    "name": "מקלט ציבורי מספר 964",
    "address": "מאיר גרונולד 8",
    "city": "ירושלים",
    "neighborhood": "קריית היובל",
    "type": "מקלט",
    "source": "gov",
    "category": "public",
    "addressEn": ""
  },
  {
    "id": "ירושלים-111",
    "lat": 31.76657686,
    "lon": 35.17703862,
    "name": "מקלט ציבורי מספר 983 - מקלט נגיש",
    "address": "גורדון 10",
    "city": "ירושלים",
    "neighborhood": "קריית היובל",
    "type": "מקלט",
    "source": "gov",
    "category": "public",
    "addressEn": ""
  },
  {
    "id": "ירושלים-112",
    "lat": 31.76325667,
    "lon": 35.1774812,
    "name": "מקלט ציבורי מספר 992",
    "address": "אטינגר 19",
    "city": "ירושלים",
    "neighborhood": "קריית היובל",
    "type": "מקלט",
    "source": "gov",
    "category": "public",
    "addressEn": ""
  },
  {
    "id": "ירושלים-113",
    "lat": 31.76409128,
    "lon": 35.1746754,
    "name": "מקלט ציבורי מספר 993",
    "address": "קליינמן 3",
    "city": "ירושלים",
    "neighborhood": "קריית היובל",
    "type": "מקלט",
    "source": "gov",
    "category": "public",
    "addressEn": ""
  },
  {
    "id": "ירושלים-114",
    "lat": 31.75615742,
    "lon": 35.1658768,
    "name": "מקלט ציבורי מספר 729",
    "address": "דהומיי 7",
    "city": "ירושלים",
    "neighborhood": "קריית מנחם",
    "type": "מקלט",
    "source": "gov",
    "category": "public",
    "addressEn": ""
  },
  {
    "id": "ירושלים-115",
    "lat": 31.75696437,
    "lon": 35.16699617,
    "name": "מקלט ציבורי מספר 730",
    "address": "דהומי 3",
    "city": "ירושלים",
    "neighborhood": "קריית מנחם",
    "type": "מקלט",
    "source": "gov",
    "category": "public",
    "addressEn": ""
  },
  {
    "id": "ירושלים-116",
    "lat": 31.75967074,
    "lon": 35.16537727,
    "name": "מקלט ציבורי מספר 734 - מקלט נגיש",
    "address": "איסלנד 17",
    "city": "ירושלים",
    "neighborhood": "קריית מנחם",
    "type": "מקלט",
    "source": "gov",
    "category": "public",
    "addressEn": ""
  },
  {
    "id": "ירושלים-117",
    "lat": 31.759495,
    "lon": 35.165392,
    "name": "מקלט ציבורי מספר 734א - מקלט נגיש",
    "address": "איסלנד 17",
    "city": "ירושלים",
    "neighborhood": "קריית מנחם",
    "type": "מקלט",
    "source": "gov",
    "category": "public",
    "addressEn": ""
  },
  {
    "id": "ירושלים-118",
    "lat": 31.75954196,
    "lon": 35.16691162,
    "name": "מקלט ציבורי מספר 803 - מקלט נגיש",
    "address": "הנריטה סולד 17",
    "city": "ירושלים",
    "neighborhood": "קריית מנחם",
    "type": "מקלט",
    "source": "gov",
    "category": "public",
    "addressEn": ""
  },
  {
    "id": "ירושלים-119",
    "lat": 31.75968527,
    "lon": 35.16888777,
    "name": "מקלט ציבורי מספר 827",
    "address": "מקסיקו 4",
    "city": "ירושלים",
    "neighborhood": "קריית מנחם",
    "type": "מקלט",
    "source": "gov",
    "category": "public",
    "addressEn": ""
  },
  {
    "id": "ירושלים-120",
    "lat": 31.7875375,
    "lon": 35.19555009,
    "name": "מקלט ציבורי מספר 978",
    "address": "הרב צבי יהודה 13",
    "city": "ירושלים",
    "neighborhood": "קריית משה",
    "type": "מקלט",
    "source": "gov",
    "category": "public",
    "addressEn": ""
  },
  {
    "id": "ירושלים-121",
    "lat": 31.7674871,
    "lon": 35.21104393,
    "name": "מקלט ציבורי מספר 667",
    "address": "הפלמח 22",
    "city": "ירושלים",
    "neighborhood": "קריית שמואל",
    "type": "מקלט",
    "source": "gov",
    "category": "public",
    "addressEn": ""
  },
  {
    "id": "ירושלים-122",
    "lat": 31.76784826,
    "lon": 35.2120205,
    "name": "מקלט ציבורי מספר 971 - מקלט נגיש",
    "address": "הפלמח 16",
    "city": "ירושלים",
    "neighborhood": "קריית שמואל",
    "type": "מקלט",
    "source": "gov",
    "category": "public",
    "addressEn": ""
  },
  {
    "id": "ירושלים-123",
    "lat": 31.78641411,
    "lon": 35.1973343,
    "name": "מקלט ציבורי מספר 977",
    "address": "גת 23",
    "city": "ירושלים",
    "neighborhood": "קריית משה",
    "type": "מקלט",
    "source": "gov",
    "category": "public",
    "addressEn": ""
  },
  {
    "id": "ירושלים-124",
    "lat": 31.79562485,
    "lon": 35.21447235,
    "name": "מקלט ציבורי מספר 606",
    "address": "פנינה 1",
    "city": "ירושלים",
    "neighborhood": "רוממה",
    "type": "מקלט",
    "source": "gov",
    "category": "public",
    "addressEn": ""
  },
  {
    "id": "ירושלים-125",
    "lat": 31.79611804,
    "lon": 35.20083957,
    "name": "מקלט ציבורי מספר 750",
    "address": "זכרון יעקב 5",
    "city": "ירושלים",
    "neighborhood": "רוממה",
    "type": "מקלט",
    "source": "gov",
    "category": "public",
    "addressEn": ""
  },
  {
    "id": "ירושלים-126",
    "lat": 31.79601192,
    "lon": 35.1991455,
    "name": "מקלט ציבורי מספר 933",
    "address": "המג 38",
    "city": "ירושלים",
    "neighborhood": "רוממה",
    "type": "מקלט",
    "source": "gov",
    "category": "public",
    "addressEn": ""
  },
  {
    "id": "ירושלים-127",
    "lat": 31.79447697,
    "lon": 35.2017481,
    "name": "מקלט ציבורי מספר 975א",
    "address": "זיכרון יעקב 15",
    "city": "ירושלים",
    "neighborhood": "רוממה",
    "type": "מקלט",
    "source": "gov",
    "category": "public",
    "addressEn": ""
  },
  {
    "id": "ירושלים-128",
    "lat": 31.79422545,
    "lon": 35.20202255,
    "name": "מקלט ציבורי מספר 975ב",
    "address": "זיכרון יעקב 17",
    "city": "ירושלים",
    "neighborhood": "רוממה",
    "type": "מקלט",
    "source": "gov",
    "category": "public",
    "addressEn": ""
  },
  {
    "id": "ירושלים-129",
    "lat": 31.79395477,
    "lon": 35.20219002,
    "name": "מקלט ציבורי מספר 975ג",
    "address": "זכרון יעקב 19",
    "city": "ירושלים",
    "neighborhood": "רוממה",
    "type": "מקלט",
    "source": "gov",
    "category": "public",
    "addressEn": ""
  },
  {
    "id": "ירושלים-130",
    "lat": 31.79353551,
    "lon": 35.20219698,
    "name": "מקלט ציבורי מספר 975ד",
    "address": "זכרון יעקב 21",
    "city": "ירושלים",
    "neighborhood": "רוממה",
    "type": "מקלט",
    "source": "gov",
    "category": "public",
    "addressEn": ""
  },
  {
    "id": "ירושלים-131",
    "lat": 31.79507382,
    "lon": 35.20108273,
    "name": "מקלט ציבורי מספר 979 - מקלט נגיש",
    "address": "זכרון יעקב 10",
    "city": "ירושלים",
    "neighborhood": "רוממה",
    "type": "מקלט",
    "source": "gov",
    "category": "public",
    "addressEn": ""
  },
  {
    "id": "ירושלים-132",
    "lat": 31.7756014,
    "lon": 35.2141171,
    "name": "מקלט ציבורי מספר 658",
    "address": "אבן עזרא 13",
    "city": "ירושלים",
    "neighborhood": "רחביה",
    "type": "מקלט",
    "source": "gov",
    "category": "public",
    "addressEn": ""
  },
  {
    "id": "ירושלים-133",
    "lat": 31.77511106,
    "lon": 35.21539432,
    "name": "מקלט ציבורי מספר 659",
    "address": "אבן גבירול 15",
    "city": "ירושלים",
    "neighborhood": "רחביה",
    "type": "מקלט",
    "source": "gov",
    "category": "public",
    "addressEn": ""
  },
  {
    "id": "ירושלים-134",
    "lat": 31.77325644,
    "lon": 35.21072878,
    "name": "מקלט ציבורי מספר 809",
    "address": "רשבא 9",
    "city": "ירושלים",
    "neighborhood": "רחביה",
    "type": "מקלט",
    "source": "gov",
    "category": "public",
    "addressEn": ""
  },
  {
    "id": "ירושלים-135",
    "lat": 31.77326342,
    "lon": 35.21668807,
    "name": "מקלט ציבורי מספר 810",
    "address": "עובדיה מברטנורה 9",
    "city": "ירושלים",
    "neighborhood": "רחביה",
    "type": "מקלט",
    "source": "gov",
    "category": "public",
    "addressEn": ""
  },
  {
    "id": "ירושלים-136",
    "lat": 31.77160326,
    "lon": 35.21238599,
    "name": "מקלט ציבורי מספר 816",
    "address": "עזה 50",
    "city": "ירושלים",
    "neighborhood": "רחביה",
    "type": "מקלט",
    "source": "gov",
    "category": "public",
    "addressEn": ""
  },
  {
    "id": "ירושלים-137",
    "lat": 31.77226266,
    "lon": 35.21589869,
    "name": "מקלט ציבורי מספר 835",
    "address": "ארלוזורוב 18",
    "city": "ירושלים",
    "neighborhood": "רחביה",
    "type": "מקלט",
    "source": "gov",
    "category": "public",
    "addressEn": ""
  },
  {
    "id": "ירושלים-138",
    "lat": 31.77628089,
    "lon": 35.2142244,
    "name": "מקלט ציבורי מספר 972",
    "address": "אלחריזי 26",
    "city": "ירושלים",
    "neighborhood": "רחביה",
    "type": "מקלט",
    "source": "gov",
    "category": "public",
    "addressEn": ""
  },
  {
    "id": "ירושלים-139",
    "lat": 31.79541215,
    "lon": 35.2188737,
    "name": "מקלט ציבורי מספר 604",
    "address": "חכם שמעון 8",
    "city": "ירושלים",
    "neighborhood": "שמואל הנביא",
    "type": "מקלט",
    "source": "gov",
    "category": "public",
    "addressEn": ""
  },
  {
    "id": "ירושלים-140",
    "lat": 31.79249233,
    "lon": 35.22309569,
    "name": "מקלט ציבורי מספר 616",
    "address": "שמואל הנביא 61",
    "city": "ירושלים",
    "neighborhood": "שמואל הנביא",
    "type": "מקלט",
    "source": "gov",
    "category": "public",
    "addressEn": ""
  },
  {
    "id": "ירושלים-141",
    "lat": 31.79286073,
    "lon": 35.22315682,
    "name": "מקלט ציבורי מספר 618 - מקלט נגיש",
    "address": "שמואל הנביא 66",
    "city": "ירושלים",
    "neighborhood": "שמואל הנביא",
    "type": "מקלט",
    "source": "gov",
    "category": "public",
    "addressEn": ""
  },
  {
    "id": "ירושלים-142",
    "lat": 31.79461697,
    "lon": 35.2189116,
    "name": "מקלט ציבורי מספר 957",
    "address": "אבינדב 19",
    "city": "ירושלים",
    "neighborhood": "שמואל הנביא",
    "type": "מקלט",
    "source": "gov",
    "category": "public",
    "addressEn": ""
  },
  {
    "id": "ירושלים-143",
    "lat": 31.76343666,
    "lon": 35.2256433,
    "name": "מקלט ציבורי מספר 679",
    "address": "דרך חברון 59",
    "city": "ירושלים",
    "neighborhood": "תלפיות",
    "type": "מקלט",
    "source": "gov",
    "category": "public",
    "addressEn": ""
  },
  {
    "id": "ירושלים-144",
    "lat": 31.75254609,
    "lon": 35.22182315,
    "name": "מקלט ציבורי מספר 688",
    "address": "אפרתה 18",
    "city": "ירושלים",
    "neighborhood": "תלפיות",
    "type": "מקלט",
    "source": "gov",
    "category": "public",
    "addressEn": ""
  },
  {
    "id": "ירושלים-145",
    "lat": 31.74909478,
    "lon": 35.2200234,
    "name": "מקלט ציבורי מספר 689",
    "address": "בן גבריאל 10",
    "city": "ירושלים",
    "neighborhood": "תלפיות",
    "type": "מקלט",
    "source": "gov",
    "category": "public",
    "addressEn": ""
  },
  {
    "id": "ירושלים-146",
    "lat": 31.74919744,
    "lon": 35.2234383,
    "name": "מקלט ציבורי מספר 690",
    "address": "לייב יפה 1",
    "city": "ירושלים",
    "neighborhood": "תלפיות",
    "type": "מקלט",
    "source": "gov",
    "category": "public",
    "addressEn": ""
  },
  {
    "id": "ירושלים-147",
    "lat": 31.75208777,
    "lon": 35.21891075,
    "name": "מקלט ציבורי מספר 691",
    "address": "דרך בית לחם 93",
    "city": "ירושלים",
    "neighborhood": "תלפיות",
    "type": "מקלט",
    "source": "gov",
    "category": "public",
    "addressEn": ""
  },
  {
    "id": "ירושלים-148",
    "lat": 31.75119887,
    "lon": 35.22008993,
    "name": "מקלט ציבורי מספר 940",
    "address": "שלום יהודה 17",
    "city": "ירושלים",
    "neighborhood": "תלפיות",
    "type": "מקלט",
    "source": "gov",
    "category": "public",
    "addressEn": ""
  },
  {
    "id": "ירושלים-149",
    "lat": 31.764072268494978,
    "lon": 35.17290601480339,
    "name": "מקלט ציבורי מספר 991",
    "address": "אברהם שרון 2",
    "city": "ירושלים",
    "neighborhood": "קרית יובל",
    "type": "מקלט",
    "source": "gov",
    "category": "public",
    "addressEn": ""
  },
  {
    "id": "ירושלים-150",
    "lat": 31.777267365823803,
    "lon": 35.215791827115616,
    "name": "חניון בית אביחי",
    "address": "המלך ג'ורג' 44",
    "city": "ירושלים",
    "neighborhood": "",
    "type": "רחביה",
    "source": "gov",
    "category": "parking",
    "addressEn": ""
  },
  {
    "id": "ירושלים-151",
    "lat": 31.750919531149275,
    "lon": 35.209708247427,
    "name": "חניון בית בנית",
    "address": "האומן 14",
    "city": "ירושלים",
    "neighborhood": "",
    "type": "תלפיות",
    "source": "gov",
    "category": "parking",
    "addressEn": ""
  },
  {
    "id": "ירושלים-152",
    "lat": 31.79133351411927,
    "lon": 35.20028136091587,
    "name": "חניון בית יהב",
    "address": "ירמיהו 80",
    "city": "ירושלים",
    "neighborhood": "",
    "type": "רוממה",
    "source": "gov",
    "category": "parking",
    "addressEn": ""
  },
  {
    "id": "ירושלים-153",
    "lat": 31.784212712816448,
    "lon": 35.21517978975263,
    "name": "חניון בניין כלל",
    "address": "יפו 97 /אגריפס 42",
    "city": "ירושלים",
    "neighborhood": "",
    "type": "מרכז העיר",
    "source": "gov",
    "category": "parking",
    "addressEn": ""
  },
  {
    "id": "ירושלים-154",
    "lat": 31.750026940030864,
    "lon": 35.18600107453311,
    "name": "חניון הגן הטכנולוגי 4",
    "address": "הגן הטכנולוגי, דרך אגודת ספורט הפועל 2",
    "city": "ירושלים",
    "neighborhood": "",
    "type": "מנחת - מלחה",
    "source": "gov",
    "category": "parking",
    "addressEn": ""
  },
  {
    "id": "ירושלים-155",
    "lat": 31.750036063320643,
    "lon": 35.185990347427136,
    "name": "חניון הגן הטכנולוגי בניין 1- 2 -בנין המגדל",
    "address": "אגודת הפועל 2",
    "city": "ירושלים",
    "neighborhood": "",
    "type": "מנחת - מלחה",
    "source": "gov",
    "category": "parking",
    "addressEn": ""
  },
  {
    "id": "ירושלים-156",
    "lat": 31.750063433170816,
    "lon": 35.186011803368515,
    "name": "חניון הגן הטכנולוגי בניין 5",
    "address": "הגן הטכנולוגי, דרך אגודת ספורט הפועל 2",
    "city": "ירושלים",
    "neighborhood": "",
    "type": "מנחת - מלחה",
    "source": "gov",
    "category": "parking",
    "addressEn": ""
  },
  {
    "id": "ירושלים-157",
    "lat": 31.749565159736868,
    "lon": 35.1866391712211,
    "name": "חניון הגן הטכנולוגי בניינים 8-9",
    "address": "הגן הטכנולוגי, דרך אגודת ספורט הפועל 2, ירושלים",
    "city": "ירושלים",
    "neighborhood": "",
    "type": "מנחת - מלחה",
    "source": "gov",
    "category": "parking",
    "addressEn": ""
  },
  {
    "id": "ירושלים-158",
    "lat": 31.78955542912993,
    "lon": 35.20335428235088,
    "name": "חניון התחנה המרכזית",
    "address": "יפו 224",
    "city": "ירושלים",
    "neighborhood": "",
    "type": "רוממה",
    "source": "gov",
    "category": "parking",
    "addressEn": ""
  },
  {
    "id": "ירושלים-159",
    "lat": 31.78433562250371,
    "lon": 35.21431678380738,
    "name": "חניון חלונות ירושלים",
    "address": "אגריפס 40",
    "city": "ירושלים",
    "neighborhood": "",
    "type": "מחנה יהודה",
    "source": "gov",
    "category": "parking",
    "addressEn": ""
  },
  {
    "id": "ירושלים-160",
    "lat": 31.752500581278603,
    "lon": 35.224593974533065,
    "name": "חניון A6 שניאור פלג צפון",
    "address": "שניאור פלג 1",
    "city": "ירושלים",
    "neighborhood": "",
    "type": "ארנונה החדשה",
    "source": "gov",
    "category": "parking",
    "addressEn": ""
  },
  {
    "id": "ירושלים-161",
    "lat": 31.752481012094652,
    "lon": 35.22462300116668,
    "name": "חניון A7 שניאור פלג דרום",
    "address": "שניאור פלג 2",
    "city": "ירושלים",
    "neighborhood": "",
    "type": "ארנונה החדשה",
    "source": "gov",
    "category": "parking",
    "addressEn": ""
  },
  {
    "id": "ירושלים-162",
    "lat": 31.787355186040934,
    "lon": 35.18123848975243,
    "name": "חניון אורנים",
    "address": "כנפי נשרים 66",
    "city": "ירושלים",
    "neighborhood": "",
    "type": "גבעת שאול",
    "source": "gov",
    "category": "parking",
    "addressEn": ""
  },
  {
    "id": "ירושלים-163",
    "lat": 31.75326482559817,
    "lon": 35.22716150336833,
    "name": "חניון בונהבנטורה",
    "address": "אנצ'ו בונהונטורה 5",
    "city": "ירושלים",
    "neighborhood": "",
    "type": "ארנונה החדשה",
    "source": "gov",
    "category": "parking",
    "addressEn": ""
  },
  {
    "id": "ירושלים-164",
    "lat": 31.78660704819047,
    "lon": 35.188391874532066,
    "name": "חניון בית השנהב",
    "address": "בית הדפוס 12",
    "city": "ירושלים",
    "neighborhood": "",
    "type": "גבעת שאול",
    "source": "gov",
    "category": "parking",
    "addressEn": ""
  },
  {
    "id": "ירושלים-165",
    "lat": 31.786512987782356,
    "lon": 35.20231020336738,
    "name": "חניון בנייני האומה",
    "address": "שדרות שזר 1",
    "city": "ירושלים",
    "neighborhood": "",
    "type": "קריית האומה",
    "source": "gov",
    "category": "parking",
    "addressEn": ""
  },
  {
    "id": "ירושלים-166",
    "lat": 31.782268982537506,
    "lon": 35.22271962883541,
    "name": "חניון בצלאל",
    "address": "זמורה 1, ירושלים",
    "city": "ירושלים",
    "neighborhood": "",
    "type": "מרכז העיר",
    "source": "gov",
    "category": "parking",
    "addressEn": ""
  },
  {
    "id": "ירושלים-167",
    "lat": 31.7523542508316,
    "lon": 35.22681197453305,
    "name": "חניון גד טדסקי",
    "address": "גד טְדֶסְקִי 5",
    "city": "ירושלים",
    "neighborhood": "",
    "type": "ארנונה החדשה",
    "source": "gov",
    "category": "parking",
    "addressEn": ""
  },
  {
    "id": "ירושלים-168",
    "lat": 31.80004470123445,
    "lon": 35.208925218991325,
    "name": "חניון גולדה (מובילאיי)",
    "address": "שדרות גולדה מאיר מערבית לרח' שלמה הלוי",
    "city": "ירושלים",
    "neighborhood": "",
    "type": "הר חוצבים",
    "source": "gov",
    "category": "parking",
    "addressEn": ""
  },
  {
    "id": "ירושלים-169",
    "lat": 31.75377988676469,
    "lon": 35.20585640336847,
    "name": "חניון גני ציון",
    "address": "אליעזר הגדול 38",
    "city": "ירושלים",
    "neighborhood": "",
    "type": "קטמון",
    "source": "gov",
    "category": "parking",
    "addressEn": ""
  },
  {
    "id": "ירושלים-170",
    "lat": 31.78218805785295,
    "lon": 35.19070503220292,
    "name": "חניון דוד ילין",
    "address": "מעגל בית המדרש 7",
    "city": "ירושלים",
    "neighborhood": "",
    "type": "בית הכרם",
    "source": "gov",
    "category": "parking",
    "addressEn": ""
  },
  {
    "id": "ירושלים-171",
    "lat": 31.786671909279008,
    "lon": 35.18618533469712,
    "name": "חניון דונה",
    "address": "בית הדפוס 20",
    "city": "ירושלים",
    "neighborhood": "",
    "type": "גבעת שאול",
    "source": "gov",
    "category": "parking",
    "addressEn": ""
  },
  {
    "id": "ירושלים-172",
    "lat": 31.759238754683796,
    "lon": 35.22167707453277,
    "name": "חניון דרך בית לחם",
    "address": "דרך בית לחם 66",
    "city": "ירושלים",
    "neighborhood": "",
    "type": "תלפיות",
    "source": "gov",
    "category": "parking",
    "addressEn": ""
  },
  {
    "id": "ירושלים-173",
    "lat": 31.767992007875165,
    "lon": 35.21644583582216,
    "name": "חניון התיאטרון",
    "address": "פרופ' יעקב שסקין",
    "city": "ירושלים",
    "neighborhood": "",
    "type": "טלביה",
    "source": "gov",
    "category": "parking",
    "addressEn": ""
  },
  {
    "id": "ירושלים-174",
    "lat": 31.757161504421042,
    "lon": 35.21648405025352,
    "name": "חניון חלץ",
    "address": "חלץ 8",
    "city": "ירושלים",
    "neighborhood": "",
    "type": "בקעה",
    "source": "gov",
    "category": "parking",
    "addressEn": ""
  },
  {
    "id": "ירושלים-175",
    "lat": 31.76159358347746,
    "lon": 35.17523615025252,
    "name": "חניון טהון",
    "address": "יעקב טהון 13",
    "city": "ירושלים",
    "neighborhood": "",
    "type": "קריית יובל",
    "source": "gov",
    "category": "parking",
    "addressEn": ""
  },
  {
    "id": "ירושלים-176",
    "lat": 31.790820121010785,
    "lon": 35.20231673220263,
    "name": "חניון יד שרה",
    "address": "ירמיהו 35",
    "city": "ירושלים",
    "neighborhood": "",
    "type": "רוממה",
    "source": "gov",
    "category": "parking",
    "addressEn": ""
  },
  {
    "id": "ירושלים-177",
    "lat": 31.754180046332795,
    "lon": 35.22718755919138,
    "name": "חניון יצחק בן דור - מזרח",
    "address": "יצחק בן דור 3",
    "city": "ירושלים",
    "neighborhood": "",
    "type": "ארנונה החדשה",
    "source": "gov",
    "category": "parking",
    "addressEn": ""
  },
  {
    "id": "ירושלים-178",
    "lat": 31.78669686771139,
    "lon": 35.18086268802584,
    "name": "חניון מגדל הנשרים",
    "address": "בית הדפוס 32",
    "city": "ירושלים",
    "neighborhood": "",
    "type": "גבעת שאול",
    "source": "gov",
    "category": "parking",
    "addressEn": ""
  },
  {
    "id": "ירושלים-179",
    "lat": 31.79087479802377,
    "lon": 35.20215290336726,
    "name": "חניון מגדלי הבירה",
    "address": "ירמיהו 39",
    "city": "ירושלים",
    "neighborhood": "",
    "type": "רוממה",
    "source": "gov",
    "category": "parking",
    "addressEn": ""
  },
  {
    "id": "ירושלים-180",
    "lat": 31.78027286168596,
    "lon": 35.21948340521556,
    "name": "חניון מוזיאון הסובלנות",
    "address": "הלל 33",
    "city": "ירושלים",
    "neighborhood": "",
    "type": "מרכז העיר",
    "source": "gov",
    "category": "parking",
    "addressEn": ""
  },
  {
    "id": "ירושלים-181",
    "lat": 31.777341283715252,
    "lon": 35.2249100757418,
    "name": "חניון ממילא",
    "address": "יצחק קריב 6",
    "city": "ירושלים",
    "neighborhood": "",
    "type": "ממילא",
    "source": "gov",
    "category": "parking",
    "addressEn": ""
  },
  {
    "id": "ירושלים-182",
    "lat": 31.78040776294547,
    "lon": 35.21281430336758,
    "name": "חניון מנורה",
    "address": "מנורה 3",
    "city": "ירושלים",
    "neighborhood": "",
    "type": "מרכז העיר",
    "source": "gov",
    "category": "parking",
    "addressEn": ""
  },
  {
    "id": "ירושלים-183",
    "lat": 31.77733144803239,
    "lon": 35.22514884548831,
    "name": "חניון מול מצודת דוד",
    "address": "יצחק קריב 7",
    "city": "ירושלים",
    "neighborhood": "",
    "type": "ממילא",
    "source": "gov",
    "category": "parking",
    "addressEn": ""
  },
  {
    "id": "ירושלים-184",
    "lat": 31.78449857399372,
    "lon": 35.22397310008403,
    "name": "חניון משרד החינוך",
    "address": "דבורה הנביאה 2",
    "city": "ירושלים",
    "neighborhood": "",
    "type": "מרכז העיר",
    "source": "gov",
    "category": "parking",
    "addressEn": ""
  },
  {
    "id": "ירושלים-185",
    "lat": 31.77993978283809,
    "lon": 35.22492106277103,
    "name": "חניון ספרא",
    "address": "יפו 26 /שבטי ישראל 7",
    "city": "ירושלים",
    "neighborhood": "",
    "type": "מרכז העיר",
    "source": "gov",
    "category": "parking",
    "addressEn": ""
  },
  {
    "id": "ירושלים-186",
    "lat": 31.761571183776763,
    "lon": 35.17173718987439,
    "name": "חניון צ'ילה",
    "address": "חניון צ'ילה 6",
    "city": "ירושלים",
    "neighborhood": "",
    "type": "קרית היובל",
    "source": "gov",
    "category": "parking",
    "addressEn": ""
  },
  {
    "id": "ירושלים-187",
    "lat": 31.794966726893914,
    "lon": 35.20843918987339,
    "name": "חניון רב שפע",
    "address": "שמגר 16",
    "city": "ירושלים",
    "neighborhood": "",
    "type": "רוממה",
    "source": "gov",
    "category": "parking",
    "addressEn": ""
  },
  {
    "id": "ירושלים-188",
    "lat": 31.781813737867314,
    "lon": 35.2157816492801,
    "name": "חניון רג'ואן",
    "address": "עליאש 6",
    "city": "ירושלים",
    "neighborhood": "",
    "type": "מרכז העיר",
    "source": "gov",
    "category": "parking",
    "addressEn": ""
  },
  {
    "id": "ירושלים-189",
    "lat": 31.781154296556917,
    "lon": 35.21851141686136,
    "name": "חניון שמאי 10",
    "address": "שמאי 10",
    "city": "ירושלים",
    "neighborhood": "",
    "type": "מרכז העיר",
    "source": "gov",
    "category": "parking",
    "addressEn": ""
  },
  {
    "id": "ירושלים-190",
    "lat": 31.781422763496103,
    "lon": 35.21891563581359,
    "name": "חניון שמאי 21",
    "address": "שמאי 21",
    "city": "ירושלים",
    "neighborhood": "",
    "type": "מרכז העיר",
    "source": "gov",
    "category": "parking",
    "addressEn": ""
  },
  {
    "id": "ירושלים-191",
    "lat": 31.779397304590315,
    "lon": 35.21787461858919,
    "name": "חניון ירושלים זהב",
    "address": "רבי עקיבא 14",
    "city": "ירושלים",
    "neighborhood": "",
    "type": "מרכז העיר",
    "source": "gov",
    "category": "parking",
    "addressEn": ""
  },
  {
    "id": "ירושלים-192",
    "lat": 31.75062443885658,
    "lon": 35.20910844928173,
    "name": "חניון לב תלפיות",
    "address": "האומן 17",
    "city": "ירושלים",
    "neighborhood": "",
    "type": "תלפיות",
    "source": "gov",
    "category": "parking",
    "addressEn": ""
  },
  {
    "id": "ירושלים-193",
    "lat": 31.781451035075712,
    "lon": 35.21568540009222,
    "name": "חניון מגדל העיר",
    "address": "בן יהודה 34",
    "city": "ירושלים",
    "neighborhood": "",
    "type": "מרכז העיר",
    "source": "gov",
    "category": "parking",
    "addressEn": ""
  },
  {
    "id": "ירושלים-194",
    "lat": 31.779959182790243,
    "lon": 35.21797370509829,
    "name": "חניון מגדלי ירושלים",
    "address": "רבי עקיבא 6",
    "city": "ירושלים",
    "neighborhood": "",
    "type": "מרכז העיר",
    "source": "gov",
    "category": "parking",
    "addressEn": ""
  },
  {
    "id": "ירושלים-195",
    "lat": 31.790028541779872,
    "lon": 35.2287387627705,
    "name": "חניון מלון עץ הזית",
    "address": "סנט ג'ורג' 26",
    "city": "ירושלים",
    "neighborhood": "",
    "type": "שמעון הצדיק",
    "source": "gov",
    "category": "parking",
    "addressEn": ""
  },
  {
    "id": "ירושלים-196",
    "lat": 31.78267031342805,
    "lon": 35.21523358609901,
    "name": "חניון מסילת דויד",
    "address": "מסילת ישרים 17",
    "city": "ירושלים",
    "neighborhood": "",
    "type": "מחנה יהודה",
    "source": "gov",
    "category": "parking",
    "addressEn": ""
  },
  {
    "id": "ירושלים-197",
    "lat": 31.785399089197544,
    "lon": 35.21013558975252,
    "name": "חניון שוקניון",
    "address": "אגריפס 88",
    "city": "ירושלים",
    "neighborhood": "",
    "type": "מחנה יהודה",
    "source": "gov",
    "category": "parking",
    "addressEn": ""
  },
  {
    "id": "ירושלים-198",
    "lat": 31.78974972250061,
    "lon": 35.205325467035486,
    "name": "חניון שערי העיר",
    "address": "יפו 216",
    "city": "ירושלים",
    "neighborhood": "",
    "type": "רוממה",
    "source": "gov",
    "category": "parking",
    "addressEn": ""
  },
  {
    "id": "ירושלים-199",
    "lat": 31.75371688,
    "lon": 35.1983481,
    "name": "קדמה",
    "address": "בר יוחאי 5",
    "city": "ירושלים",
    "neighborhood": "",
    "type": "מקלט ציבורי",
    "source": "gov",
    "category": "school",
    "addressEn": ""
  },
  {
    "id": "ירושלים-200",
    "lat": 31.78939234,
    "lon": 35.1903285,
    "name": "ת.ת מורשה",
    "address": "שלמה אלקבץ 52",
    "city": "ירושלים",
    "neighborhood": "",
    "type": "מקלט ציבורי",
    "source": "gov",
    "category": "school",
    "addressEn": ""
  },
  {
    "id": "ירושלים-201",
    "lat": 31.77195649883001,
    "lon": 35.251005982526976,
    "name": "בית ספר אשבאל אלקודס",
    "address": "אל-ופא' סמ4 1",
    "city": "ירושלים",
    "neighborhood": "",
    "type": "מקלט ציבורי",
    "source": "gov",
    "category": "school",
    "addressEn": ""
  },
  {
    "id": "ירושלים-202",
    "lat": 31.773562714611426,
    "lon": 35.2485671357059,
    "name": "בית ספר סלואן יסודי בנות",
    "address": "דרך יריחו 157",
    "city": "ירושלים",
    "neighborhood": "",
    "type": "מקלט ציבורי",
    "source": "gov",
    "category": "school",
    "addressEn": ""
  },
  {
    "id": "ירושלים-203",
    "lat": 31.77459436808814,
    "lon": 35.2147399682465,
    "name": "אלתורי תיכון בנות",
    "address": "דיר אבו טור, ירושלים",
    "city": "ירושלים",
    "neighborhood": "",
    "type": "מקלט ציבורי",
    "source": "gov",
    "category": "school",
    "addressEn": ""
  },
  {
    "id": "ירושלים-204",
    "lat": 31.75469225367416,
    "lon": 35.216524845485814,
    "name": "אורות בתלפיות בנות - נפש",
    "address": "מבוא סם שפיגל 6",
    "city": "ירושלים",
    "neighborhood": "",
    "type": "מקלט ציבורי",
    "source": "gov",
    "category": "school",
    "addressEn": ""
  },
  {
    "id": "ירושלים-205",
    "lat": 31.791118061911174,
    "lon": 35.21069217301508,
    "name": "בית ספר בית מלכה",
    "address": "מלכי ישראל 38",
    "city": "ירושלים",
    "neighborhood": "",
    "type": "מקלט ציבורי",
    "source": "gov",
    "category": "school",
    "addressEn": ""
  },
  {
    "id": "ירושלים-206",
    "lat": 31.792145440323434,
    "lon": 35.210260484656615,
    "name": "בית ספר בית מלכה",
    "address": "לואיס ברנדייס 2",
    "city": "ירושלים",
    "neighborhood": "",
    "type": "מקלט ציבורי",
    "source": "gov",
    "category": "school",
    "addressEn": ""
  },
  {
    "id": "ירושלים-207",
    "lat": 31.788252384172907,
    "lon": 35.20990761932269,
    "name": "בית ספר בנות סקווירא",
    "address": "רשי 60",
    "city": "ירושלים",
    "neighborhood": "",
    "type": "מקלט ציבורי",
    "source": "gov",
    "category": "school",
    "addressEn": ""
  },
  {
    "id": "ירושלים-208",
    "lat": 31.792248790772803,
    "lon": 35.21186316880103,
    "name": "אולפנא צביה",
    "address": "ירמיהו 5",
    "city": "ירושלים",
    "neighborhood": "",
    "type": "מקלט ציבורי",
    "source": "gov",
    "category": "school",
    "addressEn": ""
  },
  {
    "id": "ירושלים-209",
    "lat": 31.790877668029854,
    "lon": 35.210607784161084,
    "name": "בית ספר יקירי ירושלים",
    "address": "הטורים 31",
    "city": "ירושלים",
    "neighborhood": "",
    "type": "מקלט ציבורי",
    "source": "gov",
    "category": "school",
    "addressEn": ""
  },
  {
    "id": "ירושלים-210",
    "lat": 31.790501044338438,
    "lon": 35.209754490125846,
    "name": "בית ספר יקירי ירושלים",
    "address": "מלכי ישראל 77",
    "city": "ירושלים",
    "neighborhood": "",
    "type": "מקלט ציבורי",
    "source": "gov",
    "category": "school",
    "addressEn": ""
  },
  {
    "id": "ירושלים-211",
    "lat": 31.79129929598881,
    "lon": 35.210676261410704,
    "name": "בית ספר למען אחי - שערי תורה",
    "address": "הטורים 36",
    "city": "ירושלים",
    "neighborhood": "",
    "type": "מקלט ציבורי",
    "source": "gov",
    "category": "school",
    "addressEn": ""
  },
  {
    "id": "ירושלים-212",
    "lat": 31.762680169505593,
    "lon": 35.18719373199144,
    "name": "אוהל מועד",
    "address": "מ.ד. קאסוטו 16",
    "city": "ירושלים",
    "neighborhood": "",
    "type": "מקלט ציבורי",
    "source": "gov",
    "category": "school",
    "addressEn": ""
  },
  {
    "id": "ירושלים-213",
    "lat": 31.79099403996967,
    "lon": 35.21114623384955,
    "name": "בית ספר רינת התורה (ירים משה)",
    "address": "מלכי ישראל 36",
    "city": "ירושלים",
    "neighborhood": "",
    "type": "מקלט ציבורי",
    "source": "gov",
    "category": "school",
    "addressEn": ""
  },
  {
    "id": "ירושלים-214",
    "lat": 31.782096856648515,
    "lon": 35.19073722081352,
    "name": "בית ספר ממ ישראלי בית הכרם",
    "address": "מעגל בית המדרש 7",
    "city": "ירושלים",
    "neighborhood": "",
    "type": "מקלט ציבורי",
    "source": "gov",
    "category": "school",
    "addressEn": ""
  },
  {
    "id": "ירושלים-215",
    "lat": 31.77967742233026,
    "lon": 35.186453847798205,
    "name": "בית ספר ממ יפה נוף משלב למנהיגות",
    "address": "התומר 5",
    "city": "ירושלים",
    "neighborhood": "",
    "type": "מקלט ציבורי",
    "source": "gov",
    "category": "school",
    "addressEn": ""
  },
  {
    "id": "ירושלים-216",
    "lat": 31.782232936264823,
    "lon": 35.18991474779805,
    "name": "בית ספר ממ חטיבה צעירה דוד ילין",
    "address": "שדרות הרצל 89",
    "city": "ירושלים",
    "neighborhood": "",
    "type": "מקלט ציבורי",
    "source": "gov",
    "category": "school",
    "addressEn": ""
  },
  {
    "id": "ירושלים-217",
    "lat": 31.78036179766806,
    "lon": 35.19447803999045,
    "name": "בית ספר ממד דרור",
    "address": "ח.ד. שחר 19",
    "city": "ירושלים",
    "neighborhood": "",
    "type": "מקלט ציבורי",
    "source": "gov",
    "category": "school",
    "addressEn": ""
  },
  {
    "id": "ירושלים-218",
    "lat": 31.777612535771645,
    "lon": 35.186352522855096,
    "name": "בית ספר זיו ומרקס",
    "address": "שדרות הרצל 137",
    "city": "ירושלים",
    "neighborhood": "",
    "type": "מקלט ציבורי",
    "source": "gov",
    "category": "school",
    "addressEn": ""
  },
  {
    "id": "ירושלים-219",
    "lat": 31.76717474945461,
    "lon": 35.181404338111555,
    "name": "בית ספר אור ברוך",
    "address": "תורה ועבודה 8",
    "city": "ירושלים",
    "neighborhood": "",
    "type": "מקלט ציבורי",
    "source": "gov",
    "category": "school",
    "addressEn": ""
  },
  {
    "id": "ירושלים-220",
    "lat": 31.76196102799741,
    "lon": 35.191814224619634,
    "name": "אולפנא תורנית לבנות - חורב",
    "address": "דובדבני ברוך 32",
    "city": "ירושלים",
    "neighborhood": "",
    "type": "מקלט ציבורי",
    "source": "gov",
    "category": "school",
    "addressEn": ""
  },
  {
    "id": "ירושלים-221",
    "lat": 31.761808783626673,
    "lon": 35.186974485568435,
    "name": "בית ספר אחיעזר - (מוצפי)",
    "address": "הרב מוצפי סלמן 4",
    "city": "ירושלים",
    "neighborhood": "",
    "type": "מקלט ציבורי",
    "source": "gov",
    "category": "school",
    "addressEn": ""
  },
  {
    "id": "ירושלים-222",
    "lat": 31.766647866665306,
    "lon": 35.18232494232831,
    "name": "בית ספר בית יעקב בית וגן",
    "address": "שערי תורה 2",
    "city": "ירושלים",
    "neighborhood": "",
    "type": "מקלט ציבורי",
    "source": "gov",
    "category": "school",
    "addressEn": ""
  },
  {
    "id": "ירושלים-223",
    "lat": 31.76828180471385,
    "lon": 35.182598442328306,
    "name": "בית ספר בית יעקב גילה",
    "address": "תורה ועבודה 2",
    "city": "ירושלים",
    "neighborhood": "",
    "type": "מקלט ציבורי",
    "source": "gov",
    "category": "school",
    "addressEn": ""
  },
  {
    "id": "ירושלים-224",
    "lat": 31.765546896534126,
    "lon": 35.18525047514458,
    "name": "בית ספר בנות בית יעקב המרכזי",
    "address": "הפסגה 57",
    "city": "ירושלים",
    "neighborhood": "",
    "type": "מקלט ציבורי",
    "source": "gov",
    "category": "school",
    "addressEn": ""
  },
  {
    "id": "ירושלים-225",
    "lat": 31.77071416304641,
    "lon": 35.18263610547057,
    "name": "חטב ביניים יאיר של ישיבת נתיב מאיר",
    "address": "הפסגה 7",
    "city": "ירושלים",
    "neighborhood": "",
    "type": "מקלט ציבורי",
    "source": "gov",
    "category": "school",
    "addressEn": ""
  },
  {
    "id": "ירושלים-226",
    "lat": 31.767599955450134,
    "lon": 35.181271803980266,
    "name": "בית ספר הימלפרב",
    "address": "תורה ועבודה 6",
    "city": "ירושלים",
    "neighborhood": "",
    "type": "מקלט ציבורי",
    "source": "gov",
    "category": "school",
    "addressEn": ""
  },
  {
    "id": "ירושלים-227",
    "lat": 31.763322035818074,
    "lon": 35.18496173245552,
    "name": "ישיבת קרית נוער",
    "address": "הרב פרנק 20",
    "city": "ירושלים",
    "neighborhood": "",
    "type": "מקלט ציבורי",
    "source": "gov",
    "category": "school",
    "addressEn": ""
  },
  {
    "id": "ירושלים-228",
    "lat": 31.76505588,
    "lon": 35.19012265,
    "name": "תורה ומדע ליד מכון לב-ישיבה תיכונית",
    "address": "הועד הלאומי 21",
    "city": "ירושלים",
    "neighborhood": "",
    "type": "מקלט ציבורי",
    "source": "gov",
    "category": "school",
    "addressEn": ""
  },
  {
    "id": "ירושלים-229",
    "lat": 31.7633298667962,
    "lon": 35.18898812292906,
    "name": "בית ספר טל ישראל",
    "address": "הרב חיים מיכל מיכלין 21",
    "city": "ירושלים",
    "neighborhood": "",
    "type": "מקלט ציבורי",
    "source": "gov",
    "category": "school",
    "addressEn": ""
  },
  {
    "id": "ירושלים-230",
    "lat": 31.767258484453954,
    "lon": 35.183083918504785,
    "name": "קול תורה-תיכון עש",
    "address": "הפסגה 32",
    "city": "ירושלים",
    "neighborhood": "",
    "type": "מקלט ציבורי",
    "source": "gov",
    "category": "school",
    "addressEn": ""
  },
  {
    "id": "ירושלים-231",
    "lat": 31.765867439035805,
    "lon": 35.1803612576717,
    "name": "בית ספר בויאר",
    "address": "תורה ועבודה 1, ירושלים",
    "city": "ירושלים",
    "neighborhood": "",
    "type": "מקלט ציבורי",
    "source": "gov",
    "category": "school",
    "addressEn": ""
  },
  {
    "id": "ירושלים-232",
    "lat": 31.84112123142226,
    "lon": 35.220125454786285,
    "name": "בית ספר אלפא מעורב",
    "address": "אל עקבה 2",
    "city": "ירושלים",
    "neighborhood": "",
    "type": "מקלט ציבורי",
    "source": "gov",
    "category": "school",
    "addressEn": ""
  },
  {
    "id": "ירושלים-233",
    "lat": 31.820652870995982,
    "lon": 35.230205754601336,
    "name": "אבן חלדון לבנים מקיף",
    "address": "אל מרכז 12",
    "city": "ירושלים",
    "neighborhood": "",
    "type": "מקלט ציבורי",
    "source": "gov",
    "category": "school",
    "addressEn": ""
  },
  {
    "id": "ירושלים-234",
    "lat": 31.827654471202422,
    "lon": 35.22743626695003,
    "name": "בית ספר אלקמה",
    "address": "דרך בית חנינא 1",
    "city": "ירושלים",
    "neighborhood": "",
    "type": "מקלט ציבורי",
    "source": "gov",
    "category": "school",
    "addressEn": ""
  },
  {
    "id": "ירושלים-235",
    "lat": 31.83420489394228,
    "lon": 35.22888966313887,
    "name": "חטב סילואן בנים",
    "address": "ראס אל עמוד 23",
    "city": "ירושלים",
    "neighborhood": "",
    "type": "מקלט ציבורי",
    "source": "gov",
    "category": "school",
    "addressEn": ""
  },
  {
    "id": "ירושלים-236",
    "lat": 31.831059223219714,
    "lon": 35.224973896236534,
    "name": "מקיף בית חנינא בנות",
    "address": "אסאקקיני כליל 1",
    "city": "ירושלים",
    "neighborhood": "",
    "type": "מקלט ציבורי",
    "source": "gov",
    "category": "school",
    "addressEn": ""
  },
  {
    "id": "ירושלים-237",
    "lat": 31.82774440849201,
    "lon": 35.23294136268421,
    "name": "בית ספר רוואד אלקודס",
    "address": "דרך חיזמה 23",
    "city": "ירושלים",
    "neighborhood": "",
    "type": "מקלט ציבורי",
    "source": "gov",
    "category": "school",
    "addressEn": ""
  },
  {
    "id": "ירושלים-238",
    "lat": 31.742259264544046,
    "lon": 35.19232161625113,
    "name": "בית ספר אלחיואר יסודי",
    "address": "אל טואל 20",
    "city": "ירושלים",
    "neighborhood": "",
    "type": "מקלט ציבורי",
    "source": "gov",
    "category": "school",
    "addressEn": ""
  },
  {
    "id": "ירושלים-239",
    "lat": 31.745964466568875,
    "lon": 35.20314728863773,
    "name": "בית ספר בית צפאפא יסודי ב",
    "address": "אל ועד 15",
    "city": "ירושלים",
    "neighborhood": "",
    "type": "מקלט ציבורי",
    "source": "gov",
    "category": "school",
    "addressEn": ""
  },
  {
    "id": "ירושלים-240",
    "lat": 31.744675908531857,
    "lon": 35.205905587126594,
    "name": "מקיף בית צפאפא",
    "address": "אל מדרסה אל ג'דידה 24",
    "city": "ירושלים",
    "neighborhood": "",
    "type": "מקלט ציבורי",
    "source": "gov",
    "category": "school",
    "addressEn": ""
  },
  {
    "id": "ירושלים-241",
    "lat": 31.786962288542775,
    "lon": 35.23813308784994,
    "name": "בית ספר אבן אלהיתם אל סואחרה אל גרביה מכין בנים",
    "address": "האמאם אבו חניפה 6",
    "city": "ירושלים",
    "neighborhood": "",
    "type": "מקלט ציבורי",
    "source": "gov",
    "category": "school",
    "addressEn": ""
  },
  {
    "id": "ירושלים-242",
    "lat": 31.74812568913666,
    "lon": 35.244558043236474,
    "name": "אלסוואחרה תיכון בנים",
    "address": "חיי אל מדארס 57",
    "city": "ירושלים",
    "neighborhood": "",
    "type": "מקלט ציבורי",
    "source": "gov",
    "category": "school",
    "addressEn": ""
  },
  {
    "id": "ירושלים-243",
    "lat": 31.746467818020303,
    "lon": 35.24021254780001,
    "name": "מקיף אלביאן",
    "address": "אבו רביע 7",
    "city": "ירושלים",
    "neighborhood": "",
    "type": "מקלט ציבורי",
    "source": "gov",
    "category": "school",
    "addressEn": ""
  },
  {
    "id": "ירושלים-244",
    "lat": 31.830969810942893,
    "lon": 35.225621305011025,
    "name": "בית ספר סואחרה מכין בנות",
    "address": "חיי אל מדארס 72",
    "city": "ירושלים",
    "neighborhood": "",
    "type": "מקלט ציבורי",
    "source": "gov",
    "category": "school",
    "addressEn": ""
  },
  {
    "id": "ירושלים-245",
    "lat": 31.831015387441326,
    "lon": 35.225535474319024,
    "name": "בית ספר סוואחרה יסודי בנים א",
    "address": "חיי אל מדארס 70",
    "city": "ירושלים",
    "neighborhood": "",
    "type": "מקלט ציבורי",
    "source": "gov",
    "category": "school",
    "addressEn": ""
  },
  {
    "id": "ירושלים-246",
    "lat": 31.75606130542941,
    "lon": 35.24388500547135,
    "name": "בית ספר סלעה יסודי בנות",
    "address": "עמר אבן אל עאס סמטה 4 88",
    "city": "ירושלים",
    "neighborhood": "",
    "type": "מקלט ציבורי",
    "source": "gov",
    "category": "school",
    "addressEn": ""
  },
  {
    "id": "ירושלים-247",
    "lat": 31.75606746224162,
    "lon": 35.24382816624986,
    "name": "בית ספר צלעה יסודי בנים",
    "address": "עמר אבן אל עאס סמטה 1 94",
    "city": "ירושלים",
    "neighborhood": "",
    "type": "מקלט ציבורי",
    "source": "gov",
    "category": "school",
    "addressEn": ""
  },
  {
    "id": "ירושלים-248",
    "lat": 31.78594550990849,
    "lon": 35.217227324620474,
    "name": "בית ספר אהבת משה",
    "address": "ישעיהו 7",
    "city": "ירושלים",
    "neighborhood": "",
    "type": "מקלט ציבורי",
    "source": "gov",
    "category": "school",
    "addressEn": ""
  },
  {
    "id": "ירושלים-249",
    "lat": 31.785598609470362,
    "lon": 35.24796946082589,
    "name": "א-טור מכין בנות",
    "address": "ראבעה אל עדאוויה 75",
    "city": "ירושלים",
    "neighborhood": "",
    "type": "מקלט ציבורי",
    "source": "gov",
    "category": "school",
    "addressEn": ""
  },
  {
    "id": "ירושלים-250",
    "lat": 31.791709153809403,
    "lon": 35.218924739964926,
    "name": "בית ספר אור שרגא",
    "address": "ישא ברכה 33",
    "city": "ירושלים",
    "neighborhood": "",
    "type": "מקלט ציבורי",
    "source": "gov",
    "category": "school",
    "addressEn": ""
  },
  {
    "id": "ירושלים-251",
    "lat": 31.7922476993373,
    "lon": 35.22212335345685,
    "name": "בית ספר אמת ואמונה (סלונים)",
    "address": "יואל 39",
    "city": "ירושלים",
    "neighborhood": "",
    "type": "מקלט ציבורי",
    "source": "gov",
    "category": "school",
    "addressEn": ""
  },
  {
    "id": "ירושלים-252",
    "lat": 31.792414475556264,
    "lon": 35.21626712276834,
    "name": "בית ספר באבוב (מ.ח)",
    "address": "נחמיה 14",
    "city": "ירושלים",
    "neighborhood": "",
    "type": "מקלט ציבורי",
    "source": "gov",
    "category": "school",
    "addressEn": ""
  },
  {
    "id": "ירושלים-253",
    "lat": 31.789378727173542,
    "lon": 35.22163098650754,
    "name": "בית ספר בית יעקב בית ישראל",
    "address": "לפידות 17",
    "city": "ירושלים",
    "neighborhood": "",
    "type": "מקלט ציבורי",
    "source": "gov",
    "category": "school",
    "addressEn": ""
  },
  {
    "id": "ירושלים-254",
    "lat": 31.79198576144061,
    "lon": 35.21811000397915,
    "name": "בית ספר בנות מלכים (אוהל רחל)",
    "address": "ישא ברכה 32",
    "city": "ירושלים",
    "neighborhood": "",
    "type": "מקלט ציבורי",
    "source": "gov",
    "category": "school",
    "addressEn": ""
  },
  {
    "id": "ירושלים-255",
    "lat": 31.78392713324678,
    "lon": 35.23627720315535,
    "name": "אל רשידיה תיכון בנים",
    "address": "סולטן סולימן 35",
    "city": "ירושלים",
    "neighborhood": "",
    "type": "מקלט ציבורי",
    "source": "gov",
    "category": "school",
    "addressEn": ""
  },
  {
    "id": "ירושלים-256",
    "lat": 31.737107886720118,
    "lon": 35.2469915436395,
    "name": "אלביאן יסודי מעורב",
    "address": "אום ליסון סמטה 3 0",
    "city": "ירושלים",
    "neighborhood": "",
    "type": "מקלט ציבורי",
    "source": "gov",
    "category": "school",
    "addressEn": ""
  },
  {
    "id": "ירושלים-257",
    "lat": 31.789834897205633,
    "lon": 35.22029649012588,
    "name": "ישיבת אגדלך",
    "address": "יואל 13",
    "city": "ירושלים",
    "neighborhood": "",
    "type": "מקלט ציבורי",
    "source": "gov",
    "category": "school",
    "addressEn": ""
  },
  {
    "id": "ירושלים-258",
    "lat": 31.781015153896128,
    "lon": 35.25066673208295,
    "name": "אלטור יסודי בנים_ב",
    "address": "אל-סהל אל-ג'דיד 25",
    "city": "ירושלים",
    "neighborhood": "",
    "type": "מקלט ציבורי",
    "source": "gov",
    "category": "school",
    "addressEn": ""
  },
  {
    "id": "ירושלים-259",
    "lat": 31.785571250126452,
    "lon": 35.24793727432008,
    "name": "אלטור מקיף בנים",
    "address": "ראבעה אל-עדוויה סמ2 17",
    "city": "ירושלים",
    "neighborhood": "",
    "type": "מקלט ציבורי",
    "source": "gov",
    "category": "school",
    "addressEn": ""
  },
  {
    "id": "ירושלים-260",
    "lat": 31.792476279830037,
    "lon": 35.22083077329241,
    "name": "בית ספר הדר ציון",
    "address": "יחזקאל 38",
    "city": "ירושלים",
    "neighborhood": "",
    "type": "מקלט ציבורי",
    "source": "gov",
    "category": "school",
    "addressEn": ""
  },
  {
    "id": "ירושלים-261",
    "lat": 31.790229457461443,
    "lon": 35.21959689382845,
    "name": "בית ספר זכרון אליעזר",
    "address": "אבינועם 4",
    "city": "ירושלים",
    "neighborhood": "",
    "type": "מקלט ציבורי",
    "source": "gov",
    "category": "school",
    "addressEn": ""
  },
  {
    "id": "ירושלים-262",
    "lat": 31.788620824920947,
    "lon": 35.218021620813175,
    "name": "בית ספר חיי עולם",
    "address": "מלכי ישראל 1",
    "city": "ירושלים",
    "neighborhood": "",
    "type": "מקלט ציבורי",
    "source": "gov",
    "category": "school",
    "addressEn": ""
  },
  {
    "id": "ירושלים-263",
    "lat": 31.790717579074578,
    "lon": 35.21971500546949,
    "name": "בית ספר חכמה ודעת",
    "address": "עזרא 10",
    "city": "ירושלים",
    "neighborhood": "",
    "type": "מקלט ציבורי",
    "source": "gov",
    "category": "school",
    "addressEn": ""
  },
  {
    "id": "ירושלים-264",
    "lat": 31.764965587525033,
    "lon": 35.23144383388026,
    "name": "אלתורי יסודי בנות",
    "address": "אל ת'ורי סמטה 5 135",
    "city": "ירושלים",
    "neighborhood": "",
    "type": "מקלט ציבורי",
    "source": "gov",
    "category": "school",
    "addressEn": ""
  },
  {
    "id": "ירושלים-265",
    "lat": 31.789246758408915,
    "lon": 35.222101543641614,
    "name": "מכון אהרון וישראל (קרלין)",
    "address": "הרב אשלג 5",
    "city": "ירושלים",
    "neighborhood": "",
    "type": "מקלט ציבורי",
    "source": "gov",
    "category": "school",
    "addressEn": ""
  },
  {
    "id": "ירושלים-266",
    "lat": 31.788817524570955,
    "lon": 35.2142204780321,
    "name": "בית ספר פורת יוסף גאולה",
    "address": "יוסף בן מתתיהו 30",
    "city": "ירושלים",
    "neighborhood": "",
    "type": "מקלט ציבורי",
    "source": "gov",
    "category": "school",
    "addressEn": ""
  },
  {
    "id": "ירושלים-267",
    "lat": 31.792235433365427,
    "lon": 35.22150187617658,
    "name": "ישיבת קרלין סטולין-בית אהרון וישראל",
    "address": "שלמה מוסיוף 25",
    "city": "ירושלים",
    "neighborhood": "",
    "type": "מקלט ציבורי",
    "source": "gov",
    "category": "school",
    "addressEn": ""
  },
  {
    "id": "ירושלים-268",
    "lat": 31.787876480112395,
    "lon": 35.21754767677078,
    "name": "ישיבת תפארת ישראל רוזין",
    "address": "פרי חדש 8",
    "city": "ירושלים",
    "neighborhood": "",
    "type": "מקלט ציבורי",
    "source": "gov",
    "category": "school",
    "addressEn": ""
  },
  {
    "id": "ירושלים-269",
    "lat": 31.755967987118954,
    "lon": 35.21881381756074,
    "name": "בית ספר ממ תלי גאולים עש יצחק נבון",
    "address": "קבוץ גלויות 4",
    "city": "ירושלים",
    "neighborhood": "",
    "type": "מקלט ציבורי",
    "source": "gov",
    "category": "school",
    "addressEn": ""
  },
  {
    "id": "ירושלים-270",
    "lat": 31.74142873363179,
    "lon": 35.205578230979654,
    "name": "בית ספר בית צפאפא יסודי א",
    "address": "אל בראעם 35",
    "city": "ירושלים",
    "neighborhood": "",
    "type": "מקלט ציבורי",
    "source": "gov",
    "category": "school",
    "addressEn": ""
  },
  {
    "id": "ירושלים-271",
    "lat": 31.831042733320547,
    "lon": 35.225632031988994,
    "name": "זהרת אלמדאיין",
    "address": "חיי אל מדארס 0",
    "city": "ירושלים",
    "neighborhood": "",
    "type": "מקלט ציבורי",
    "source": "gov",
    "category": "school",
    "addressEn": ""
  },
  {
    "id": "ירושלים-272",
    "lat": 31.7578930019981,
    "lon": 35.21731779152426,
    "name": "בית ספר פלך - תורני ניסויי לבנות",
    "address": "יהודה 31",
    "city": "ירושלים",
    "neighborhood": "",
    "type": "מקלט ציבורי",
    "source": "gov",
    "category": "school",
    "addressEn": ""
  },
  {
    "id": "ירושלים-273",
    "lat": 31.740626584381474,
    "lon": 35.242133302218306,
    "name": "מכין אבו חאמד אלגזאלי",
    "address": "אום ליסון 135",
    "city": "ירושלים",
    "neighborhood": "",
    "type": "מקלט ציבורי",
    "source": "gov",
    "category": "school",
    "addressEn": ""
  },
  {
    "id": "ירושלים-274",
    "lat": 31.802546400184028,
    "lon": 35.240019134304774,
    "name": "בית ספר ממ יאנוש קורצאק",
    "address": "בר כוכבא 99",
    "city": "ירושלים",
    "neighborhood": "",
    "type": "מקלט ציבורי",
    "source": "gov",
    "category": "school",
    "addressEn": ""
  },
  {
    "id": "ירושלים-275",
    "lat": 31.801537327880688,
    "lon": 35.23444116931322,
    "name": "בית ספר בית החינוך עש פרנקל",
    "address": "אצל 20",
    "city": "ירושלים",
    "neighborhood": "",
    "type": "מקלט ציבורי",
    "source": "gov",
    "category": "school",
    "addressEn": ""
  },
  {
    "id": "ירושלים-276",
    "lat": 31.80149361092352,
    "lon": 35.23963058414562,
    "name": "אולפנת צביה יצירתית",
    "address": "לוחמי הגטאות 7",
    "city": "ירושלים",
    "neighborhood": "",
    "type": "מקלט ציבורי",
    "source": "gov",
    "category": "school",
    "addressEn": ""
  },
  {
    "id": "ירושלים-277",
    "lat": 31.763344043906795,
    "lon": 35.196259929498865,
    "name": "בית ספר ממד תורני גבעת מרדכי עש הרב בן ציון נמט",
    "address": "הרב סרנא יחזקאל 2",
    "city": "ירושלים",
    "neighborhood": "",
    "type": "מקלט ציבורי",
    "source": "gov",
    "category": "school",
    "addressEn": ""
  },
  {
    "id": "ירושלים-278",
    "lat": 31.762895848555964,
    "lon": 35.19852223811146,
    "name": "אולפנת טליה",
    "address": "הרב חיים הלר 31",
    "city": "ירושלים",
    "neighborhood": "",
    "type": "מקלט ציבורי",
    "source": "gov",
    "category": "school",
    "addressEn": ""
  },
  {
    "id": "ירושלים-279",
    "lat": 31.760942851904723,
    "lon": 35.19844553430689,
    "name": "ישיבת נועם",
    "address": "יצחק דוד מן 7",
    "city": "ירושלים",
    "neighborhood": "",
    "type": "מקלט ציבורי",
    "source": "gov",
    "category": "school",
    "addressEn": ""
  },
  {
    "id": "ירושלים-280",
    "lat": 31.74968006405794,
    "lon": 35.17156217663569,
    "name": "בית ספר ממ היובל",
    "address": "אריה דולצ'ין 21",
    "city": "ירושלים",
    "neighborhood": "",
    "type": "מקלט ציבורי",
    "source": "gov",
    "category": "school",
    "addressEn": ""
  },
  {
    "id": "ירושלים-281",
    "lat": 31.751509182411958,
    "lon": 35.17677347514507,
    "name": "התיכון הישראלי למדעים ולאמנויות (יאסא)",
    "address": "דרך חיים ע. קוליץ 1",
    "city": "ירושלים",
    "neighborhood": "",
    "type": "מקלט ציבורי",
    "source": "gov",
    "category": "school",
    "addressEn": ""
  },
  {
    "id": "ירושלים-282",
    "lat": 31.777883087712862,
    "lon": 35.19444071494687,
    "name": "בית ספר מכללת אורט",
    "address": "פרופ' מנדי רודן 1",
    "city": "ירושלים",
    "neighborhood": "",
    "type": "מקלט ציבורי",
    "source": "gov",
    "category": "school",
    "addressEn": ""
  },
  {
    "id": "ירושלים-283",
    "lat": 31.79762688566457,
    "lon": 35.22820593199031,
    "name": "עבד אללה בן אלחוסין מחט בנות",
    "address": "שלמה זלמן שרגאי 1",
    "city": "ירושלים",
    "neighborhood": "",
    "type": "מקלט ציבורי",
    "source": "gov",
    "category": "school",
    "addressEn": ""
  },
  {
    "id": "ירושלים-284",
    "lat": 31.77819676221133,
    "lon": 35.194311553969825,
    "name": "התיכון ליד האקדמיה למוסיקה ולמחול",
    "address": "מנדי רודן 1 ירושלים",
    "city": "ירושלים",
    "neighborhood": "",
    "type": "מקלט ציבורי",
    "source": "gov",
    "category": "school",
    "addressEn": ""
  },
  {
    "id": "ירושלים-285",
    "lat": 31.793300645012092,
    "lon": 35.1908710720858,
    "name": "בית ספר אבני שלמה (אבני צדק)",
    "address": "הרב פינחס קהתי 19",
    "city": "ירושלים",
    "neighborhood": "",
    "type": "מקלט ציבורי",
    "source": "gov",
    "category": "school",
    "addressEn": ""
  },
  {
    "id": "ירושלים-286",
    "lat": 31.78926504704267,
    "lon": 35.19149037179721,
    "name": "בית ספר ממד נועם בנים ק.משה",
    "address": "חיים ויטאל 32",
    "city": "ירושלים",
    "neighborhood": "",
    "type": "מקלט ציבורי",
    "source": "gov",
    "category": "school",
    "addressEn": ""
  },
  {
    "id": "ירושלים-287",
    "lat": 31.78922018217505,
    "lon": 35.18245055345667,
    "name": "בית ספר אורייתא דרכא",
    "address": "נחום חפצדי 5",
    "city": "ירושלים",
    "neighborhood": "",
    "type": "מקלט ציבורי",
    "source": "gov",
    "category": "school",
    "addressEn": ""
  },
  {
    "id": "ירושלים-288",
    "lat": 31.785446289994134,
    "lon": 35.18914463996475,
    "name": "בית ספר איילת השחר (מצטיינות)",
    "address": "דרך יוסף ויץ 3",
    "city": "ירושלים",
    "neighborhood": "",
    "type": "מקלט ציבורי",
    "source": "gov",
    "category": "school",
    "addressEn": ""
  },
  {
    "id": "ירושלים-289",
    "lat": 31.789192701676892,
    "lon": 35.195121524620546,
    "name": "בית ספר אילת השחר",
    "address": "בן ציון 15",
    "city": "ירושלים",
    "neighborhood": "",
    "type": "מקלט ציבורי",
    "source": "gov",
    "category": "school",
    "addressEn": ""
  },
  {
    "id": "ירושלים-290",
    "lat": 31.790550349845308,
    "lon": 35.19347614630759,
    "name": "בית ספר גבעת שאול",
    "address": "בן ציון 24",
    "city": "ירושלים",
    "neighborhood": "",
    "type": "מקלט ציבורי",
    "source": "gov",
    "category": "school",
    "addressEn": ""
  },
  {
    "id": "ירושלים-291",
    "lat": 31.79004528045804,
    "lon": 35.18943274630769,
    "name": "בית ספר גבעת שאול סניף קורדובירו",
    "address": "משה קורדובירו 28",
    "city": "ירושלים",
    "neighborhood": "",
    "type": "מקלט ציבורי",
    "source": "gov",
    "category": "school",
    "addressEn": ""
  },
  {
    "id": "ירושלים-292",
    "lat": 31.789684842424695,
    "lon": 35.194823720813176,
    "name": "בית ספר חינוך ברמה לבנות-רמת החינוך",
    "address": "בן ציון 18",
    "city": "ירושלים",
    "neighborhood": "",
    "type": "מקלט ציבורי",
    "source": "gov",
    "category": "school",
    "addressEn": ""
  },
  {
    "id": "ירושלים-293",
    "lat": 31.791649857940747,
    "lon": 35.19116126083053,
    "name": "בית ספר נחלת יוסף (עטרת ציון)",
    "address": "הרב שלמה אלקבץ 6",
    "city": "ירושלים",
    "neighborhood": "",
    "type": "מקלט ציבורי",
    "source": "gov",
    "category": "school",
    "addressEn": ""
  },
  {
    "id": "ירושלים-294",
    "lat": 31.758000103790955,
    "lon": 35.20722963729059,
    "name": "בית ספר מדרשייה עלמא אמונה",
    "address": "רבן יוחנן בן זכאי 33",
    "city": "ירושלים",
    "neighborhood": "",
    "type": "מקלט ציבורי",
    "source": "gov",
    "category": "school",
    "addressEn": ""
  },
  {
    "id": "ירושלים-295",
    "lat": 31.785858267128646,
    "lon": 35.22254871480257,
    "name": "בית אברהם",
    "address": "הרב שמואל סלנט 17",
    "city": "ירושלים",
    "neighborhood": "",
    "type": "מקלט ציבורי",
    "source": "gov",
    "category": "school",
    "addressEn": ""
  },
  {
    "id": "ירושלים-296",
    "lat": 31.75470487650203,
    "lon": 35.2043174761784,
    "name": "שחרית -תיכון ניסויי דתי ברוח הייטק היי (דרור)",
    "address": "אליעזר הגדול 4",
    "city": "ירושלים",
    "neighborhood": "",
    "type": "מקלט ציבורי",
    "source": "gov",
    "category": "school",
    "addressEn": ""
  },
  {
    "id": "ירושלים-297",
    "lat": 31.751646674463522,
    "lon": 35.19968985367592,
    "name": "בית ספר ממ דו לשוני (יהודי-ערבי)",
    "address": "אריה בעהם 7",
    "city": "ירושלים",
    "neighborhood": "",
    "type": "מקלט ציבורי",
    "source": "gov",
    "category": "school",
    "addressEn": ""
  },
  {
    "id": "ירושלים-298",
    "lat": 31.757755339351966,
    "lon": 35.20162481438534,
    "name": "בית ספר ממד גוננים",
    "address": "הורקניה 21",
    "city": "ירושלים",
    "neighborhood": "",
    "type": "מקלט ציבורי",
    "source": "gov",
    "category": "school",
    "addressEn": ""
  },
  {
    "id": "ירושלים-299",
    "lat": 31.79896133591107,
    "lon": 35.20737198966065,
    "name": "בית חוה (בנות באיאן)",
    "address": "הרב זלמן סורוצקין 40",
    "city": "ירושלים",
    "neighborhood": "",
    "type": "מקלט ציבורי",
    "source": "gov",
    "category": "school",
    "addressEn": ""
  },
  {
    "id": "ירושלים-300",
    "lat": 31.754793823733873,
    "lon": 35.20365062669848,
    "name": "דנמרק-תיכון עירוני מקיף",
    "address": "יהודה הנשיא 26",
    "city": "ירושלים",
    "neighborhood": "",
    "type": "מקלט ציבורי",
    "source": "gov",
    "category": "school",
    "addressEn": ""
  },
  {
    "id": "ירושלים-301",
    "lat": 31.753419779288762,
    "lon": 35.20543453570696,
    "name": "בית ספר קשת",
    "address": "אלכסנדריון 23",
    "city": "ירושלים",
    "neighborhood": "",
    "type": "מקלט ציבורי",
    "source": "gov",
    "category": "school",
    "addressEn": ""
  },
  {
    "id": "ירושלים-302",
    "lat": 31.760946696278744,
    "lon": 35.20451134779925,
    "name": "בית ספר חוות הנוער הציוני",
    "address": "שד שי עגנון 20",
    "city": "ירושלים",
    "neighborhood": "",
    "type": "מקלט ציבורי",
    "source": "gov",
    "category": "school",
    "addressEn": ""
  },
  {
    "id": "ירושלים-303",
    "lat": 31.75542313094822,
    "lon": 35.19396199786236,
    "name": "בית ספר גבעת גונן",
    "address": "רבי צדוק 12",
    "city": "ירושלים",
    "neighborhood": "",
    "type": "מקלט ציבורי",
    "source": "gov",
    "category": "school",
    "addressEn": ""
  },
  {
    "id": "ירושלים-304",
    "lat": 31.753249878111536,
    "lon": 35.19893364181585,
    "name": "בית ספר אורט פלך בנים",
    "address": "דב יוסף 2",
    "city": "ירושלים",
    "neighborhood": "",
    "type": "מקלט ציבורי",
    "source": "gov",
    "category": "school",
    "addressEn": ""
  },
  {
    "id": "ירושלים-305",
    "lat": 31.733655947380157,
    "lon": 35.1892103631444,
    "name": "בית ספר ממ אריאל משלב גילה ג",
    "address": "הדולב 423",
    "city": "ירושלים",
    "neighborhood": "",
    "type": "מקלט ציבורי",
    "source": "gov",
    "category": "school",
    "addressEn": ""
  },
  {
    "id": "ירושלים-306",
    "lat": 31.73392049666775,
    "lon": 35.19944430547248,
    "name": "בית ספר חרדי מנחי יד אשר בנים",
    "address": "המור 6",
    "city": "ירושלים",
    "neighborhood": "",
    "type": "מקלט ציבורי",
    "source": "gov",
    "category": "school",
    "addressEn": ""
  },
  {
    "id": "ירושלים-307",
    "lat": 31.734716669466515,
    "lon": 35.19930666314425,
    "name": "בית ספר ממ גילה א ללימודי סביבה וחברה",
    "address": "מבוא נטף 4",
    "city": "ירושלים",
    "neighborhood": "",
    "type": "מקלט ציבורי",
    "source": "gov",
    "category": "school",
    "addressEn": ""
  },
  {
    "id": "ירושלים-308",
    "lat": 31.72987320115094,
    "lon": 35.18634698263267,
    "name": "בית ספר גילה ב למדעים ואומנויות עש אלי כהן",
    "address": "מרגלית 411",
    "city": "ירושלים",
    "neighborhood": "",
    "type": "מקלט ציבורי",
    "source": "gov",
    "category": "school",
    "addressEn": ""
  },
  {
    "id": "ירושלים-309",
    "lat": 31.735427918293585,
    "lon": 35.19933666314423,
    "name": "בית ספר ממ תלי גילה",
    "address": "ורדינון 1",
    "city": "ירושלים",
    "neighborhood": "",
    "type": "מקלט ציבורי",
    "source": "gov",
    "category": "school",
    "addressEn": ""
  },
  {
    "id": "ירושלים-310",
    "lat": 31.735466718209523,
    "lon": 35.180406847800676,
    "name": "בית ספר חמד תירוש - ממד גילה ב",
    "address": "תירוש 9",
    "city": "ירושלים",
    "neighborhood": "",
    "type": "מקלט ציבורי",
    "source": "gov",
    "category": "school",
    "addressEn": ""
  },
  {
    "id": "ירושלים-311",
    "lat": 31.731922275712265,
    "lon": 35.18666767617941,
    "name": "בית ספר נער ישראל - תת חבד גילה",
    "address": "סנונית 1",
    "city": "ירושלים",
    "neighborhood": "",
    "type": "מקלט ציבורי",
    "source": "gov",
    "category": "school",
    "addressEn": ""
  },
  {
    "id": "ירושלים-312",
    "lat": 31.72789011109422,
    "lon": 35.19008746314466,
    "name": "בית ספר חרדי מנחי יד אשר בנות",
    "address": "אחלמה 8",
    "city": "ירושלים",
    "neighborhood": "",
    "type": "מקלט ציבורי",
    "source": "gov",
    "category": "school",
    "addressEn": ""
  },
  {
    "id": "ירושלים-313",
    "lat": 31.736122327271108,
    "lon": 35.197508344475445,
    "name": "בית ספר מקיף גילה - גרינברג, עירוני יז",
    "address": "ורדינון 12",
    "city": "ירושלים",
    "neighborhood": "",
    "type": "מקלט ציבורי",
    "source": "gov",
    "category": "school",
    "addressEn": ""
  },
  {
    "id": "ירושלים-314",
    "lat": 31.729946653199956,
    "lon": 35.19102665160189,
    "name": "בית ספר ארץ הצבי",
    "address": "הגננת 29",
    "city": "ירושלים",
    "neighborhood": "",
    "type": "מקלט ציבורי",
    "source": "gov",
    "category": "school",
    "addressEn": ""
  },
  {
    "id": "ירושלים-315",
    "lat": 31.766175854565347,
    "lon": 35.21796532854604,
    "name": "בית ספר הרטמן",
    "address": "קליין 7",
    "city": "ירושלים",
    "neighborhood": "",
    "type": "מקלט ציבורי",
    "source": "gov",
    "category": "school",
    "addressEn": ""
  },
  {
    "id": "ירושלים-316",
    "lat": 31.765237634671802,
    "lon": 35.21542340244779,
    "name": "בית ספר ממד יהודה-הלוי",
    "address": "הצפירה 29",
    "city": "ירושלים",
    "neighborhood": "",
    "type": "מקלט ציבורי",
    "source": "gov",
    "category": "school",
    "addressEn": ""
  },
  {
    "id": "ירושלים-317",
    "lat": 31.76530735759498,
    "lon": 35.22035911349245,
    "name": "בית ספר בית חינוך",
    "address": "עמק רפאים 22",
    "city": "ירושלים",
    "neighborhood": "",
    "type": "מקלט ציבורי",
    "source": "gov",
    "category": "school",
    "addressEn": ""
  },
  {
    "id": "ירושלים-318",
    "lat": 31.726352626632465,
    "lon": 35.22331858676227,
    "name": "בית ספר ממ תלי עש אילן רמון",
    "address": "הרב יצחק ניסים 3",
    "city": "ירושלים",
    "neighborhood": "",
    "type": "מקלט ציבורי",
    "source": "gov",
    "category": "school",
    "addressEn": ""
  },
  {
    "id": "ירושלים-319",
    "lat": 31.72409964975359,
    "lon": 35.21609372081664,
    "name": "בית ספר ממ עופרים",
    "address": "שביבי אש 5",
    "city": "ירושלים",
    "neighborhood": "",
    "type": "מקלט ציבורי",
    "source": "gov",
    "category": "school",
    "addressEn": ""
  },
  {
    "id": "ירושלים-320",
    "lat": 31.723801289439717,
    "lon": 35.22031952971927,
    "name": "בית ספר ממד תורני חומת שמואל",
    "address": "שאול אביגור 9",
    "city": "ירושלים",
    "neighborhood": "",
    "type": "מקלט ציבורי",
    "source": "gov",
    "category": "school",
    "addressEn": ""
  },
  {
    "id": "ירושלים-321",
    "lat": 31.72215593420757,
    "lon": 35.22456925348089,
    "name": "בית ספר ממד תורני עש הרב עמיטל",
    "address": "אליהו קורן 18",
    "city": "ירושלים",
    "neighborhood": "",
    "type": "מקלט ציבורי",
    "source": "gov",
    "category": "school",
    "addressEn": ""
  },
  {
    "id": "ירושלים-322",
    "lat": 31.722190420930403,
    "lon": 35.22431373245771,
    "name": "בית ספר ישיבת הר חומה",
    "address": "הרב מן ההר 4",
    "city": "ירושלים",
    "neighborhood": "",
    "type": "מקלט ציבורי",
    "source": "gov",
    "category": "school",
    "addressEn": ""
  },
  {
    "id": "ירושלים-323",
    "lat": 31.780975599255758,
    "lon": 35.17307478044004,
    "name": "בית ספר אביעזרי",
    "address": "הרב שאול אבן דנאן 28",
    "city": "ירושלים",
    "neighborhood": "",
    "type": "מקלט ציבורי",
    "source": "gov",
    "category": "school",
    "addressEn": ""
  },
  {
    "id": "ירושלים-324",
    "lat": 31.78493120994357,
    "lon": 35.17544264975164,
    "name": "אולפנת ראשית",
    "address": "הרב רפאל קצנלבוגן 43",
    "city": "ירושלים",
    "neighborhood": "",
    "type": "מקלט ציבורי",
    "source": "gov",
    "category": "school",
    "addressEn": ""
  },
  {
    "id": "ירושלים-325",
    "lat": 31.78392637317963,
    "lon": 35.171762911128596,
    "name": "בית ספר אור חדש",
    "address": "הרב יצחק חי טייב 42",
    "city": "ירושלים",
    "neighborhood": "",
    "type": "מקלט ציבורי",
    "source": "gov",
    "category": "school",
    "addressEn": ""
  },
  {
    "id": "ירושלים-326",
    "lat": 31.782693181019383,
    "lon": 35.174131013492456,
    "name": "בית האולפנא",
    "address": "זרח ברנט 6",
    "city": "ירושלים",
    "neighborhood": "",
    "type": "מקלט ציבורי",
    "source": "gov",
    "category": "school",
    "addressEn": ""
  },
  {
    "id": "ירושלים-327",
    "lat": 31.78342999417135,
    "lon": 35.178524422767964,
    "name": "בית ספר איתרי (ארחות איש- הר נוף)",
    "address": "הרב רפאל קצנלבוגן 71",
    "city": "ירושלים",
    "neighborhood": "",
    "type": "מקלט ציבורי",
    "source": "gov",
    "category": "school",
    "addressEn": ""
  },
  {
    "id": "ירושלים-328",
    "lat": 31.782912314988316,
    "lon": 35.178244432815454,
    "name": "בית ספר דמשק אליעזר (ויזניץ)",
    "address": "הרב רפאל קצנלבוגן 80",
    "city": "ירושלים",
    "neighborhood": "",
    "type": "מקלט ציבורי",
    "source": "gov",
    "category": "school",
    "addressEn": ""
  },
  {
    "id": "ירושלים-329",
    "lat": 31.7881050235833,
    "lon": 35.178190403979485,
    "name": "בית ספר דעת אהרן",
    "address": "הקבלן 40",
    "city": "ירושלים",
    "neighborhood": "",
    "type": "מקלט ציבורי",
    "source": "gov",
    "category": "school",
    "addressEn": ""
  },
  {
    "id": "ירושלים-330",
    "lat": 31.78823342100694,
    "lon": 35.175359690486886,
    "name": "בית ספר דרך החיים",
    "address": "הקבלן 8",
    "city": "ירושלים",
    "neighborhood": "",
    "type": "מקלט ציבורי",
    "source": "gov",
    "category": "school",
    "addressEn": ""
  },
  {
    "id": "ירושלים-331",
    "lat": 31.78918394336319,
    "lon": 35.17445484734019,
    "name": "בית ספר סמינר שושנים",
    "address": "בית יצחק 1",
    "city": "ירושלים",
    "neighborhood": "",
    "type": "מקלט ציבורי",
    "source": "gov",
    "category": "school",
    "addressEn": ""
  },
  {
    "id": "ירושלים-332",
    "lat": 31.781558458636987,
    "lon": 35.17262663281553,
    "name": "בית ספר הר נוף",
    "address": "הרב שאול אבן דנאן 30",
    "city": "ירושלים",
    "neighborhood": "",
    "type": "מקלט ציבורי",
    "source": "gov",
    "category": "school",
    "addressEn": ""
  },
  {
    "id": "ירושלים-333",
    "lat": 31.786482143673176,
    "lon": 35.17575994018162,
    "name": "בית ספר הר נוף - בנים (נתיבות שלמה)",
    "address": "הרב רפאל קצנלבוגן 25",
    "city": "ירושלים",
    "neighborhood": "",
    "type": "מקלט ציבורי",
    "source": "gov",
    "category": "school",
    "addressEn": ""
  },
  {
    "id": "ירושלים-334",
    "lat": 31.788414425277892,
    "lon": 35.17633598863602,
    "name": "בית ספר הר נוף - בנים (שתילי מאיר)",
    "address": "הפלאה 2",
    "city": "ירושלים",
    "neighborhood": "",
    "type": "מקלט ציבורי",
    "source": "gov",
    "category": "school",
    "addressEn": ""
  },
  {
    "id": "ירושלים-335",
    "lat": 31.788808077078176,
    "lon": 35.17844115348567,
    "name": "בית ספר זרע יצחק",
    "address": "הקבלן 42",
    "city": "ירושלים",
    "neighborhood": "",
    "type": "מקלט ציבורי",
    "source": "gov",
    "category": "school",
    "addressEn": ""
  },