[
  {
    "id": "קריית אתא-1",
    "lat": 32.8075156,
    "lon": 35.1242992,
    "name": "מקלט 101",
    "address": "מבצע סיני 5",
    "city": "קריית אתא",
    "neighborhood": "",
    "type": "מקלט ציבורי",
    "source": "gov",
    "category": "public"
  },
  {
    "id": "קריית אתא-2",
    "lat": 32.8084186,
    "lon": 35.1259999,
    "name": "מקלט 102",
    "address": "המכבים 8",
    "city": "קריית אתא",
    "neighborhood": "",
    "type": "מקלט ציבורי",
    "source": "gov",
    "category": "public"
  },
  {
    "id": "קריית אתא-3",
    "lat": 32.8105484,
    "lon": 35.1279825,
    "name": "מקלט 103",
    "address": "בן עמי 30",
    "city": "קריית אתא",
    "neighborhood": "",
    "type": "מקלט ציבורי",
    "source": "gov",
    "category": "public"
  },
  {
    "id": "קריית אתא-4",
    "lat": 32.80951230000001,
    "lon": 35.128848,
    "name": "מקלט 104",
    "address": "בן עמי 46",
    "city": "קריית אתא",
    "neighborhood": "",
    "type": "מקלט ציבורי",
    "source": "gov",
    "category": "public"
  },
  {
    "id": "קריית אתא-5",
    "lat": 32.8113568,
    "lon": 35.1247532,
    "name": "מקלט 105",
    "address": "בר כוכבא 6",
    "city": "קריית אתא",
    "neighborhood": "",
    "type": "מקלט ציבורי",
    "source": "gov",
    "category": "public"
  },
  {
    "id": "קריית אתא-6",
    "lat": 32.811815,
    "lon": 35.1248728,
    "name": "מקלט 106",
    "address": "בר כוכבא 9",
    "city": "קריית אתא",
    "neighborhood": "",
    "type": "מקלט ציבורי",
    "source": "gov",
    "category": "public"
  },
  {
    "id": "קריית אתא-7",
    "lat": 32.8098743,
    "lon": 35.1243831,
    "name": "מקלט 107",
    "address": "יצחק שדה 4",
    "city": "קריית אתא",
    "neighborhood": "",
    "type": "מקלט ציבורי",
    "source": "gov",
    "category": "public"
  },
  {
    "id": "קריית אתא-8",
    "lat": 32.810195,
    "lon": 35.1242658,
    "name": "מקלט 108",
    "address": "יצחק שדה 6",
    "city": "קריית אתא",
    "neighborhood": "",
    "type": "מקלט ציבורי",
    "source": "gov",
    "category": "public"
  },
  {
    "id": "קריית אתא-9",
    "lat": 32.8127087,
    "lon": 35.1246286,
    "name": "מקלט 109",
    "address": "יצחק שדה 26",
    "city": "קריית אתא",
    "neighborhood": "",
    "type": "מקלט ציבורי",
    "source": "gov",
    "category": "public"
  },
  {
    "id": "קריית אתא-10",
    "lat": 32.8093057,
    "lon": 35.1244661,
    "name": "מקלט 110",
    "address": "אנילביץ 18",
    "city": "קריית אתא",
    "neighborhood": "",
    "type": "מקלט ציבורי",
    "source": "gov",
    "category": "public"
  },
  {
    "id": "קריית אתא-11",
    "lat": 32.809597,
    "lon": 35.1236153,
    "name": "מקלט 111",
    "address": "אלי כהן 9",
    "city": "קריית אתא",
    "neighborhood": "",
    "type": "מקלט ציבורי",
    "source": "gov",
    "category": "public"
  },
  {
    "id": "קריית אתא-12",
    "lat": 32.8093184,
    "lon": 35.1223685,
    "name": "מקלט 112",
    "address": "פלמח 16",
    "city": "קריית אתא",
    "neighborhood": "",
    "type": "מקלט ציבורי",
    "source": "gov",
    "category": "public"
  },
  {
    "id": "קריית אתא-13",
    "lat": 32.8088857,
    "lon": 35.1219914,
    "name": "מקלט 113",
    "address": "פלמח 3",
    "city": "קריית אתא",
    "neighborhood": "",
    "type": "מקלט ציבורי",
    "source": "gov",
    "category": "public"
  },
  {
    "id": "קריית אתא-14",
    "lat": 32.8099843,
    "lon": 35.1213031,
    "name": "מקלט 114",
    "address": "יבניאלי 25",
    "city": "קריית אתא",
    "neighborhood": "",
    "type": "מקלט ציבורי",
    "source": "gov",
    "category": "public"
  },
  {
    "id": "קריית אתא-15",
    "lat": 32.8089005,
    "lon": 35.1207208,
    "name": "מקלט 115",
    "address": "יבניאלי 2",
    "city": "קריית אתא",
    "neighborhood": "",
    "type": "מקלט ציבורי",
    "source": "gov",
    "category": "public"
  },
  {
    "id": "קריית אתא-16",
    "lat": 32.8092303,
    "lon": 35.119651,
    "name": "מקלט 116",
    "address": "א.טביב 18",
    "city": "קריית אתא",
    "neighborhood": "",
    "type": "מקלט ציבורי",
    "source": "gov",
    "category": "public"
  },
  {
    "id": "קריית אתא-17",
    "lat": 32.809144,
    "lon": 35.119773,
    "name": "מקלט 117",
    "address": "19 א",
    "city": "קריית אתא",
    "neighborhood": "",
    "type": "מקלט ציבורי",
    "source": "gov",
    "category": "public"
  },
  {
    "id": "קריית אתא-18",
    "lat": 32.8113829,
    "lon": 35.1181199,
    "name": "מקלט 118",
    "address": "יהושע בן 5",
    "city": "קריית אתא",
    "neighborhood": "",
    "type": "מקלט ציבורי",
    "source": "gov",
    "category": "public"
  },
  {
    "id": "קריית אתא-19",
    "lat": 32.811645,
    "lon": 35.1212066,
    "name": "מקלט 119",
    "address": "שמואל עזר 26 פינת אביגדור עשת",
    "city": "קריית אתא",
    "neighborhood": "",
    "type": "מקלט ציבורי",
    "source": "gov",
    "category": "public"
  },
  {
    "id": "קריית אתא-20",
    "lat": 32.8144001,
    "lon": 35.1191431,
    "name": "מקלט 120",
    "address": "אביגדור עשת 44 פינת שמואל עזר",
    "city": "קריית אתא",
    "neighborhood": "",
    "type": "מקלט ציבורי",
    "source": "gov",
    "category": "public"
  },
  {
    "id": "קריית אתא-21",
    "lat": 32.8157534,
    "lon": 35.117795,
    "name": "מקלט 121",
    "address": "אביגדור עשת 32",
    "city": "קריית אתא",
    "neighborhood": "",
    "type": "מקלט ציבורי",
    "source": "gov",
    "category": "public"
  },
  {
    "id": "קריית אתא-22",
    "lat": 32.8167645,
    "lon": 35.1161899,
    "name": "מקלט 122",
    "address": "ויצמן 24",
    "city": "קריית אתא",
    "neighborhood": "",
    "type": "מקלט ציבורי",
    "source": "gov",
    "category": "public"
  },
  {
    "id": "קריית אתא-23",
    "lat": 32.8134894,
    "lon": 35.1174409,
    "name": "מקלט 123",
    "address": "עוזיאל 25",
    "city": "קריית אתא",
    "neighborhood": "",
    "type": "מקלט ציבורי",
    "source": "gov",
    "category": "public"
  },
  {
    "id": "קריית אתא-24",
    "lat": 32.815656,
    "lon": 35.1147976,
    "name": "מקלט 124",
    "address": "זמנהוף 7",
    "city": "קריית אתא",
    "neighborhood": "",
    "type": "מקלט ציבורי",
    "source": "gov",
    "category": "public"
  },
  {
    "id": "קריית אתא-25",
    "lat": 32.8134534,
    "lon": 35.11466430000001,
    "name": "מקלט 125",
    "address": "איינשטיין 17",
    "city": "קריית אתא",
    "neighborhood": "",
    "type": "מקלט ציבורי",
    "source": "gov",
    "category": "public"
  },
  {
    "id": "קריית אתא-26",
    "lat": 32.8139054,
    "lon": 35.1152599,
    "name": "מקלט 126",
    "address": "ויצמן 2",
    "city": "קריית אתא",
    "neighborhood": "",
    "type": "מקלט ציבורי",
    "source": "gov",
    "category": "public"
  },
  {
    "id": "קריית אתא-27",
    "lat": 32.8140457,
    "lon": 35.1150417,
    "name": "מקלט 127",
    "address": "ויצמן 1",
    "city": "קריית אתא",
    "neighborhood": "",
    "type": "מקלט ציבורי",
    "source": "gov",
    "category": "public"
  },
  {
    "id": "קריית אתא-28",
    "lat": 32.8138372,
    "lon": 35.115933,
    "name": "מקלט 128",
    "address": "אהרון בן יוסף 1",
    "city": "קריית אתא",
    "neighborhood": "",
    "type": "מקלט ציבורי",
    "source": "gov",
    "category": "public"
  },
  {
    "id": "קריית אתא-29",
    "lat": 32.8136666,
    "lon": 35.1134143,
    "name": "מקלט 129",
    "address": "סמטת יאיר 12",
    "city": "קריית אתא",
    "neighborhood": "",
    "type": "מקלט ציבורי",
    "source": "gov",
    "category": "public"
  },
  {
    "id": "קריית אתא-30",
    "lat": 32.8143699,
    "lon": 35.1131087,
    "name": "מקלט 130",
    "address": "סמטת יאיר 6",
    "city": "קריית אתא",
    "neighborhood": "",
    "type": "מקלט ציבורי",
    "source": "gov",
    "category": "public"
  },
  {
    "id": "קריית אתא-31",
    "lat": 32.8136666,
    "lon": 35.1134143,
    "name": "מקלט 131",
    "address": "סמטת יאיר 12",
    "city": "קריית אתא",
    "neighborhood": "",
    "type": "מקלט ציבורי",
    "source": "gov",
    "category": "public"
  },
  {
    "id": "קריית אתא-32",
    "lat": 32.8121384,
    "lon": 35.1140773,
    "name": "מקלט 132",
    "address": "צנחנים 23",
    "city": "קריית אתא",
    "neighborhood": "",
    "type": "מקלט ציבורי",
    "source": "gov",
    "category": "public"
  },
  {
    "id": "קריית אתא-33",
    "lat": 32.8107931,
    "lon": 35.1135893,
    "name": "מקלט 133",
    "address": "בורוכוב 1",
    "city": "קריית אתא",
    "neighborhood": "",
    "type": "מקלט ציבורי",
    "source": "gov",
    "category": "public"
  },
  {
    "id": "קריית אתא-34",
    "lat": 32.8123622,
    "lon": 35.1145464,
    "name": "מקלט 134",
    "address": "יוספטל 61",
    "city": "קריית אתא",
    "neighborhood": "",
    "type": "מקלט ציבורי",
    "source": "gov",
    "category": "public"
  },
  {
    "id": "קריית אתא-35",
    "lat": 32.8122666,
    "lon": 35.1157399,
    "name": "מקלט 135",
    "address": "אסף שמחוני 16",
    "city": "קריית אתא",
    "neighborhood": "",
    "type": "מקלט ציבורי",
    "source": "gov",
    "category": "public"
  },
  {
    "id": "קריית אתא-36",
    "lat": 32.8100673,
    "lon": 35.1167917,
    "name": "מקלט 136",
    "address": "אסף שמחוני 44",
    "city": "קריית אתא",
    "neighborhood": "",
    "type": "מקלט ציבורי",
    "source": "gov",
    "category": "public"
  },
  {
    "id": "קריית אתא-37",
    "lat": 32.8066646,
    "lon": 35.1146294,
    "name": "מקלט 137",
    "address": "סירקין 24",
    "city": "קריית אתא",
    "neighborhood": "",
    "type": "מקלט ציבורי",
    "source": "gov",
    "category": "public"
  },
  {
    "id": "קריית אתא-38",
    "lat": 32.8130954,
    "lon": 35.1106293,
    "name": "מקלט 138",
    "address": "הוגו מולר 31",
    "city": "קריית אתא",
    "neighborhood": "",
    "type": "מקלט ציבורי",
    "source": "gov",
    "category": "public"
  },
  {
    "id": "קריית אתא-39",
    "lat": 32.812708,
    "lon": 35.108928,
    "name": "מקלט 139",
    "address": "רו פין 7",
    "city": "קריית אתא",
    "neighborhood": "",
    "type": "מקלט ציבורי",
    "source": "gov",
    "category": "public"
  },
  {
    "id": "קריית אתא-40",
    "lat": 32.8126221,
    "lon": 35.1086159,
    "name": "מקלט 140",
    "address": "רופין 6",
    "city": "קריית אתא",
    "neighborhood": "",
    "type": "מקלט ציבורי",
    "source": "gov",
    "category": "public"
  },
  {
    "id": "קריית אתא-41",
    "lat": 32.8133772,
    "lon": 35.1071879,
    "name": "מקלט 141",
    "address": "הוגו מולר 51/53",
    "city": "קריית אתא",
    "neighborhood": "",
    "type": "מקלט ציבורי",
    "source": "gov",
    "category": "public"
  },
  {
    "id": "קריית אתא-42",
    "lat": 32.812785,
    "lon": 35.10621,
    "name": "מקלט 142",
    "address": "סוקולוב 63",
    "city": "קריית אתא",
    "neighborhood": "",
    "type": "מקלט ציבורי",
    "source": "gov",
    "category": "public"
  },
  {
    "id": "קריית אתא-43",
    "lat": 32.800025,
    "lon": 35.1056558,
    "name": "מקלט 143",
    "address": "ככר בני ברית 8",
    "city": "קריית אתא",
    "neighborhood": "",
    "type": "מקלט ציבורי",
    "source": "gov",
    "category": "public"
  },
  {
    "id": "קריית אתא-44",
    "lat": 32.8049677,
    "lon": 35.1039214,
    "name": "מקלט 144",
    "address": "עצמאות 49",
    "city": "קריית אתא",
    "neighborhood": "",
    "type": "מקלט ציבורי",
    "source": "gov",
    "category": "public"
  },
  {
    "id": "קריית אתא-45",
    "lat": 32.8066605,
    "lon": 35.0931043,
    "name": "מקלט 145",
    "address": "שיבת ציון 23",
    "city": "קריית אתא",
    "neighborhood": "",
    "type": "מקלט ציבורי",
    "source": "gov",
    "category": "public"
  },
  {
    "id": "קריית אתא-46",
    "lat": 32.8079923,
    "lon": 35.0926027,
    "name": "מקלט 146",
    "address": "שיבת ציון 37",
    "city": "קריית אתא",
    "neighborhood": "",
    "type": "מקלט ציבורי",
    "source": "gov",
    "category": "public"
  },
  {
    "id": "קריית אתא-47",
    "lat": 32.8094001,
    "lon": 35.0924685,
    "name": "מקלט 147",
    "address": "הותיקים 5",
    "city": "קריית אתא",
    "neighborhood": "",
    "type": "מקלט ציבורי",
    "source": "gov",
    "category": "public"
  },
  {
    "id": "קריית אתא-48",
    "lat": 32.8048387,
    "lon": 35.0951986,
    "name": "מקלט 148",
    "address": "בר אילן 8",
    "city": "קריית אתא",
    "neighborhood": "",
    "type": "מקלט ציבורי",
    "source": "gov",
    "category": "public"
  },
  {
    "id": "קריית אתא-49",
    "lat": 32.803448,
    "lon": 35.0928275,
    "name": "מקלט 149",
    "address": "קבוץ גלויות 4",
    "city": "קריית אתא",
    "neighborhood": "",
    "type": "מקלט ציבורי",
    "source": "gov",
    "category": "public"
  },
  {
    "id": "קריית אתא-50",
    "lat": 32.80337,
    "lon": 35.0932962,
    "name": "מקלט 150",
    "address": "קבוץ גלויות 5",
    "city": "קריית אתא",
    "neighborhood": "",
    "type": "מקלט ציבורי",
    "source": "gov",
    "category": "public"
  },
  {
    "id": "קריית אתא-51",
    "lat": 32.8030621,
    "lon": 35.0933284,
    "name": "מקלט 151",
    "address": "קבוץ גלויות 9",
    "city": "קריית אתא",
    "neighborhood": "",
    "type": "מקלט ציבורי",
    "source": "gov",
    "category": "public"
  },
  {
    "id": "קריית אתא-52",
    "lat": 32.7894698,
    "lon": 35.0863657,
    "name": "מקלט 152",
    "address": "שבזי 19",
    "city": "קריית אתא",
    "neighborhood": "",
    "type": "מקלט ציבורי",
    "source": "gov",
    "category": "public"
  },
  {
    "id": "קריית אתא-53",
    "lat": 32.809144,
    "lon": 35.119773,
    "name": "מקלט 153",
    "address": "צלאח 15",
    "city": "קריית אתא",
    "neighborhood": "",
    "type": "מקלט ציבורי",
    "source": "gov",
    "category": "public"
  },
  {
    "id": "קריית אתא-54",
    "lat": 32.7877762,
    "lon": 35.0859977,
    "name": "מקלט 154",
    "address": "יחיא צלאח בי ס נועם",
    "city": "קריית אתא",
    "neighborhood": "",
    "type": "מקלט ציבורי",
    "source": "gov",
    "category": "public"
  },
  {
    "id": "קריית אתא-55",
    "lat": 32.8000749,
    "lon": 35.0842528,
    "name": "מקלט 155",
    "address": "ק. שטנד 24",
    "city": "קריית אתא",
    "neighborhood": "",
    "type": "מקלט ציבורי",
    "source": "gov",
    "category": "public"
  },
  {
    "id": "קריית אתא-56",
    "lat": 32.815891,
    "lon": 35.118398,
    "name": "מקלט 157",
    "address": "12 ק. נחום",
    "city": "קריית אתא",
    "neighborhood": "",
    "type": "מקלט ציבורי",
    "source": "gov",
    "category": "public"
  },
  {
    "id": "קריית אתא-57",
    "lat": 32.8106533,
    "lon": 35.1184646,
    "name": "מקלט 159",
    "address": "אלבז",
    "city": "קריית אתא",
    "neighborhood": "",
    "type": "מקלט ציבורי",
    "source": "gov",
    "category": "public"
  }
]