[
  {
    "id": "מטולה-1",
    "lat": 33.2811582,
    "lon": 35.5770124,
    "name": "מקלט 1",
    "address": "מצפה נפתלי 1",
    "city": "מטולה",
    "type": "מקלט ציבורי",
    "source": "gov",
    "category": "public",
    "addressEn": "מצפה נפתלי 1, מטולה, ישראל"
  },
  {
    "id": "מטולה-2",
    "lat": 33.2797175,
    "lon": 35.5768226,
    "name": "מקלט 2",
    "address": "מצפה נפתלי 9",
    "city": "מטולה",
    "type": "מקלט ציבורי",
    "source": "gov",
    "category": "public",
    "addressEn": "מצפה נפתלי 9, מטולה, ישראל"
  },
  {
    "id": "מטולה-3",
    "lat": 33.2766064,
    "lon": 35.5780449,
    "name": "מקלט 3",
    "address": "מצפה נפתלי 35",
    "city": "מטולה",
    "type": "מקלט ציבורי",
    "source": "gov",
    "category": "public",
    "addressEn": "מצפה נפתלי 35, מטולה, ישראל"
  },
  {
    "id": "מטולה-4",
    "lat": 33.2775439,
    "lon": 35.5770494,
    "name": "מקלט 4",
    "address": "מצפה נפתלי 32",
    "city": "מטולה",
    "type": "מקלט ציבורי",
    "source": "gov",
    "category": "public",
    "addressEn": "מצפה נפתלי 32, מטולה, ישראל"
  },
  {
    "id": "מטולה-5",
    "lat": 33.2779608,
    "lon": 35.5769708,
    "name": "מקלט 5 - בית הנוער אולפן חירום",
    "address": "מצפה נפתלי",
    "city": "מטולה",
    "type": "מקלט ציבורי",
    "source": "gov",
    "category": "public",
    "addressEn": "מצפה נפתלי, מטולה, ישראל"
  },
  {
    "id": "מטולה-6",
    "lat": 33.2772569,
    "lon": 35.5772937,
    "name": "מקלט 6",
    "address": "מצפה נפתלי 25",
    "city": "מטולה",
    "type": "מקלט ציבורי",
    "source": "gov",
    "category": "public",
    "addressEn": "מצפה נפתלי 25, מטולה, ישראל"
  },
  {
    "id": "מטולה-7",
    "lat": 33.2783464,
    "lon": 35.5767028,
    "name": "מקלט 7 - מועדון",
    "address": "מצפה נפתלי 24",
    "city": "מטולה",
    "type": "מקלט ציבורי",
    "source": "gov",
    "category": "public",
    "addressEn": "מצפה נפתלי 24, מטולה, ישראל"
  },
  {
    "id": "מטולה-8",
    "lat": 33.2778174,
    "lon": 35.5768565,
    "name": "מקלט 8",
    "address": "מצפה נפתלי 28",
    "city": "מטולה",
    "type": "מקלט ציבורי",
    "source": "gov",
    "category": "public",
    "addressEn": "מצפה נפתלי 28, מטולה, ישראל"
  },
  {
    "id": "מטולה-9",
    "lat": 33.275415,
    "lon": 35.5788131,
    "name": "מקלט 9",
    "address": "מצפה החולה 1",
    "city": "מטולה",
    "type": "מקלט ציבורי",
    "source": "gov",
    "category": "public",
    "addressEn": "מצפה החולה 1, מטולה, ישראל"
  },
  {
    "id": "מטולה-10",
    "lat": 33.2761757,
    "lon": 35.5775494,
    "name": "מקלט 10",
    "address": "מצפה החולה 14",
    "city": "מטולה",
    "type": "מקלט ציבורי",
    "source": "gov",
    "category": "public",
    "addressEn": "מצפה החולה 14, מטולה, ישראל"
  },
  {
    "id": "מטולה-11",
    "lat": 33.2762852,
    "lon": 35.5792893,
    "name": "מקלט 11",
    "address": "המעיין 1",
    "city": "מטולה",
    "type": "מקלט ציבורי",
    "source": "gov",
    "category": "public",
    "addressEn": "המעיין 1, מטולה, ישראל"
  },
  {
    "id": "מטולה-12",
    "lat": 33.2764811,
    "lon": 35.5803655,
    "name": "מקלט 12",
    "address": "המעיין 8",
    "city": "מטולה",
    "type": "מקלט ציבורי",
    "source": "gov",
    "category": "public",
    "addressEn": "המעיין 8, מטולה, ישראל"
  },
  {
    "id": "מטולה-13",
    "lat": 33.2766661,
    "lon": 35.58068799999999,
    "name": "מקלט 13",
    "address": "הגורן 1",
    "city": "מטולה",
    "type": "מקלט ציבורי",
    "source": "gov",
    "category": "public",
    "addressEn": "הגורן 1, מטולה, ישראל"
  },
  {
    "id": "מטולה-14",
    "lat": 33.2810552,
    "lon": 35.5826092,
    "name": "מקלט 14",
    "address": "הגורן 54",
    "city": "מטולה",
    "type": "מקלט ציבורי",
    "source": "gov",
    "category": "public",
    "addressEn": "הגורן 54, מטולה, ישראל"
  },
  {
    "id": "מטולה-15",
    "lat": 33.2789744,
    "lon": 35.5789194,
    "name": "מקלט 15 - בית כנסת",
    "address": "הראשונים 18",
    "city": "מטולה",
    "type": "מקלט ציבורי",
    "source": "gov",
    "category": "public",
    "addressEn": "הראשונים 18, מטולה, ישראל"
  },
  {
    "id": "מטולה-16",
    "lat": 33.2779608,
    "lon": 35.5769708,
    "name": "מקלט 16",
    "address": "מצפה נפתלי",
    "city": "מטולה",
    "type": "מקלט ציבורי",
    "source": "gov",
    "category": "public",
    "addressEn": "מצפה נפתלי, מטולה, ישראל"
  },
  {
    "id": "מטולה-17",
    "lat": 33.2794956,
    "lon": 35.5770606,
    "name": "מקלט 17",
    "address": "מצפה נפתלי 11",
    "city": "מטולה",
    "type": "מקלט ציבורי",
    "source": "gov",
    "category": "public",
    "addressEn": "מצפה נפתלי 11, מטולה, ישראל"
  },
  {
    "id": "מטולה-18",
    "lat": 33.2778201,
    "lon": 35.5776205,
    "name": "מקלט 18",
    "address": "הצבעונים 1",
    "city": "מטולה",
    "type": "מקלט ציבורי",
    "source": "gov",
    "category": "public",
    "addressEn": "הצבעונים 1, מטולה, ישראל"
  },
  {
    "id": "מטולה-19",
    "lat": 33.2780004,
    "lon": 35.5781051,
    "name": "מקלט 19",
    "address": "הראשונים 3",
    "city": "מטולה",
    "type": "מקלט ציבורי",
    "source": "gov",
    "category": "public",
    "addressEn": "הראשונים 3, מטולה, ישראל"
  },
  {
    "id": "מטולה-20",
    "lat": 33.2794218,
    "lon": 35.5781774,
    "name": "מקלט 20",
    "address": "הראשונים 15",
    "city": "מטולה",
    "type": "מקלט ציבורי",
    "source": "gov",
    "category": "public",
    "addressEn": "הראשונים 15, מטולה, ישראל"
  },
  {
    "id": "מטולה-21",
    "lat": 33.2799064,
    "lon": 35.578648,
    "name": "מקלט 21 - בית האומנויות",
    "address": "הראשונים 17",
    "city": "מטולה",
    "type": "מקלט ציבורי",
    "source": "gov",
    "category": "school",
    "addressEn": "הראשונים 17, מטולה, ישראל"
  },
  {
    "id": "מטולה-22",
    "lat": 33.2826422,
    "lon": 35.5795272,
    "name": "מקלט 22 - בית הדואר",
    "address": "הראשונים 59",
    "city": "מטולה",
    "type": "מקלט ציבורי",
    "source": "gov",
    "category": "public",
    "addressEn": "הראשונים 59, מטולה, ישראל"
  },
  {
    "id": "מטולה-23",
    "lat": 33.2800909,
    "lon": 35.5773915,
    "name": "מקלט 23 - גן אורן",
    "address": "הנדיב 6",
    "city": "מטולה",
    "type": "מקלט ציבורי",
    "source": "gov",
    "category": "public",
    "addressEn": "הנדיב 6, מטולה, ישראל"
  },
  {
    "id": "מטולה-24",
    "lat": 33.2800228,
    "lon": 35.5774495,
    "name": "מקלט 24 - בית הקשיש",
    "address": "הנדיב 5",
    "city": "מטולה",
    "type": "מקלט ציבורי",
    "source": "gov",
    "category": "public",
    "addressEn": "הנדיב 5, מטולה, ישראל"
  },
  {
    "id": "מטולה-25",
    "lat": 33.2800909,
    "lon": 35.5773915,
    "name": "מקלט 25 - בית הספר",
    "address": "הנדיב 6",
    "city": "מטולה",
    "type": "מקלט ציבורי",
    "source": "gov",
    "category": "school",
    "addressEn": "הנדיב 6, מטולה, ישראל"
  },
  {
    "id": "מטולה-26",
    "lat": 33.2800909,
    "lon": 35.5773915,
    "name": "מקלט 26 - גנים אלון וארז",
    "address": "הנדיב 8",
    "city": "מטולה",
    "type": "מקלט ציבורי",
    "source": "gov",
    "category": "school",
    "addressEn": "הנדיב 8, מטולה, ישראל"
  },
  {
    "id": "מטולה-27",
    "lat": 33.2800909,
    "lon": 35.5773915,
    "name": "מקלט 27",
    "address": "הנדיב 6",
    "city": "מטולה",
    "type": "מקלט ציבורי",
    "source": "gov",
    "category": "public",
    "addressEn": "הנדיב 6, מטולה, ישראל"
  },
  {
    "id": "מטולה-28",
    "lat": 33.2803233,
    "lon": 35.5779688,
    "name": "מקלט 28 - מלון המבריא",
    "address": "הנדיב 25",
    "city": "מטולה",
    "type": "מקלט ציבורי",
    "source": "gov",
    "category": "public",
    "addressEn": "הנדיב 25, מטולה, ישראל"
  },
  {
    "id": "מטולה-29",
    "lat": 33.2794632,
    "lon": 35.5733135,
    "name": "מקלט 29",
    "address": "הארזים 58",
    "city": "מטולה",
    "type": "מקלט ציבורי",
    "source": "gov",
    "category": "public",
    "addressEn": "הארזים 58, מטולה, ישראל"
  },
  {
    "id": "מטולה-30",
    "lat": 33.2810874,
    "lon": 35.5762967,
    "name": "מקלט 30",
    "address": "הארזים 9",
    "city": "מטולה",
    "type": "מקלט ציבורי",
    "source": "gov",
    "category": "public",
    "addressEn": "הארזים 9, מטולה, ישראל"
  },
  {
    "id": "מטולה-31",
    "lat": 33.2806765,
    "lon": 35.5758097,
    "name": "מקלט 31",
    "address": "הארזים 7",
    "city": "מטולה",
    "type": "מקלט ציבורי",
    "source": "gov",
    "category": "public",
    "addressEn": "הארזים 7, מטולה, ישראל"
  },
  {
    "id": "מטולה-32",
    "lat": 33.2818466,
    "lon": 35.5739093,
    "name": "מקלט 32",
    "address": "הלבנון 5",
    "city": "מטולה",
    "type": "מקלט ציבורי",
    "source": "gov",
    "category": "public",
    "addressEn": "הלבנון 5, מטולה, ישראל"
  },
  {
    "id": "מטולה-33",
    "lat": 33.2816149,
    "lon": 35.5766462,
    "name": "מקלט 33",
    "address": "הדובדבן 2",
    "city": "מטולה",
    "type": "מקלט ציבורי",
    "source": "gov",
    "category": "public",
    "addressEn": "הדובדבן 2, מטולה, ישראל"
  },
  {
    "id": "מטולה-34",
    "lat": 33.283143,
    "lon": 35.5751745,
    "name": "מקלט 34",
    "address": "הדובדבן 13",
    "city": "מטולה",
    "type": "מקלט ציבורי",
    "source": "gov",
    "category": "public",
    "addressEn": "הדובדבן 13, מטולה, ישראל"
  }
]