[
  {
    "id": "nahariya_210",
    "lat": 32.9989866,
    "lon": 35.1030723,
    "name": "מקלט 210 - שלמה המלך 17",
    "address": "שלמה המלך 17",
    "city": "נהריה",
    "capacity": "",
    "type": "מקלט תת-קרקעי",
    "source": "gov",
    "category": "public"
  },
  {
    "id": "nahariya_211",
    "lat": 32.99921,
    "lon": 35.1007653,
    "name": "מקלט 211 - יפה נוף 16",
    "address": "יפה נוף 16",
    "city": "נהריה",
    "capacity": "",
    "type": "מקלט תת-קרקעי",
    "source": "gov",
    "category": "public"
  },
  {
    "id": "nahariya_212",
    "lat": 32.9989866,
    "lon": 35.1030723,
    "name": "מקלט 212 - שלמה המלך 6",
    "address": "שלמה המלך 6",
    "city": "נהריה",
    "capacity": "",
    "type": "מקלט תת-קרקעי",
    "source": "gov",
    "category": "public"
  },
  {
    "id": "nahariya_213",
    "lat": 32.99921,
    "lon": 35.1007653,
    "name": "מקלט 213 - יפה נוף 1",
    "address": "יפה נוף 1",
    "city": "נהריה",
    "capacity": "",
    "type": "מקלט תת-קרקעי",
    "source": "gov",
    "category": "public"
  },
  {
    "id": "nahariya_219",
    "lat": 33.0015889,
    "lon": 35.1041574,
    "name": "מקלט 219 - נחמיה 16",
    "address": "נחמיה 16",
    "city": "נהריה",
    "capacity": "",
    "type": "מקלט תת-קרקעי",
    "source": "gov",
    "category": "public"
  },
  {
    "id": "nahariya_220",
    "lat": 32.99921,
    "lon": 35.1007653,
    "name": "מקלט 220 - יפה נוף 21",
    "address": "יפה נוף 21",
    "city": "נהריה",
    "capacity": "",
    "type": "מקלט תת-קרקעי",
    "source": "gov",
    "category": "public"
  },
  {
    "id": "nahariya_221",
    "lat": 32.99921,
    "lon": 35.1007653,
    "name": "מקלט 221 - יפה נוף 29",
    "address": "יפה נוף 29",
    "city": "נהריה",
    "capacity": "",
    "type": "מקלט תת-קרקעי",
    "source": "gov",
    "category": "public"
  },
  {
    "id": "nahariya_225",
    "lat": 32.99921,
    "lon": 35.1007653,
    "name": "מקלט 225 - יפה נוף 1",
    "address": "יפה נוף 1",
    "city": "נהריה",
    "capacity": "",
    "type": "מקלט תת-קרקעי",
    "source": "gov",
    "category": "public"
  },
  {
    "id": "nahariya_226",
    "lat": 32.99921,
    "lon": 35.1007653,
    "name": "מקלט 226 - יפה נוף 42",
    "address": "יפה נוף 42",
    "city": "נהריה",
    "capacity": "",
    "type": "מקלט תת-קרקעי",
    "source": "gov",
    "category": "public"
  },
  {
    "id": "nahariya_228",
    "lat": 32.9968102,
    "lon": 35.0995105,
    "name": "מקלט 228 - ירושלים 25",
    "address": "ירושלים 25",
    "city": "נהריה",
    "capacity": "",
    "type": "מקלט תת-קרקעי",
    "source": "gov",
    "category": "public"
  },
  {
    "id": "nahariya_229",
    "lat": 32.99921,
    "lon": 35.1007653,
    "name": "מקלט 229 - יפה נוף 16",
    "address": "יפה נוף 16",
    "city": "נהריה",
    "capacity": "",
    "type": "מקלט תת-קרקעי",
    "source": "gov",
    "category": "public"
  },
  {
    "id": "nahariya_230",
    "lat": 32.9989866,
    "lon": 35.1030723,
    "name": "מקלט 230 - שלמה המלך 30",
    "address": "שלמה המלך 30",
    "city": "נהריה",
    "capacity": "",
    "type": "מקלט תת-קרקעי",
    "source": "gov",
    "category": "public"
  },
  {
    "id": "nahariya_231",
    "lat": 32.9971659,
    "lon": 35.1031019,
    "name": "מקלט 231 - שאול המלך 40",
    "address": "שאול המלך 40",
    "city": "נהריה",
    "capacity": "",
    "type": "מקלט תת-קרקעי",
    "source": "gov",
    "category": "public"
  },
  {
    "id": "nahariya_232",
    "lat": 32.9968102,
    "lon": 35.0995105,
    "name": "מקלט 232 - ירושלים 12",
    "address": "ירושלים 12",
    "city": "נהריה",
    "capacity": "",
    "type": "מקלט תת-קרקעי",
    "source": "gov",
    "category": "public"
  },
  {
    "id": "nahariya_233",
    "lat": 33.002362,
    "lon": 35.103142,
    "name": "מקלט 233 - עזרא 27",
    "address": "עזרא 27",
    "city": "נהריה",
    "capacity": "",
    "type": "מקלט תת-קרקעי",
    "source": "gov",
    "category": "public"
  },
  {
    "id": "nahariya_234",
    "lat": 32.9971659,
    "lon": 35.1031019,
    "name": "מקלט 234 - שאול המלך 2",
    "address": "שאול המלך 2",
    "city": "נהריה",
    "capacity": "",
    "type": "מקלט תת-קרקעי",
    "source": "gov",
    "category": "public"
  },
  {
    "id": "nahariya_235",
    "lat": 32.9989866,
    "lon": 35.1030723,
    "name": "מקלט 235 - שלמה המלך 12",
    "address": "שלמה המלך 12",
    "city": "נהריה",
    "capacity": "",
    "type": "מקלט תת-קרקעי",
    "source": "gov",
    "category": "public"
  },
  {
    "id": "nahariya_236",
    "lat": 32.9959157,
    "lon": 35.1019602,
    "name": "מקלט 236 - דוד המלך 7",
    "address": "דוד המלך 7",
    "city": "נהריה",
    "capacity": "",
    "type": "מקלט תת-קרקעי",
    "source": "gov",
    "category": "public"
  },
  {
    "id": "nahariya_237",
    "lat": 32.996439,
    "lon": 35.098498,
    "name": "מקלט 237 - אפריים שריר 4",
    "address": "אפריים שריר 4",
    "city": "נהריה",
    "capacity": "",
    "type": "מקלט תת-קרקעי",
    "source": "gov",
    "category": "public"
  },
  {
    "id": "nahariya_238",
    "lat": 32.996439,
    "lon": 35.098498,
    "name": "מקלט 238 - אפרים שריר 18",
    "address": "אפרים שריר 18",
    "city": "נהריה",
    "capacity": "",
    "type": "מקלט תת-קרקעי",
    "source": "gov",
    "category": "public"
  },
  {
    "id": "nahariya_239",
    "lat": 32.996439,
    "lon": 35.098498,
    "name": "מקלט 239 - אפרים שריר 24",
    "address": "אפרים שריר 24",
    "city": "נהריה",
    "capacity": "",
    "type": "מקלט תת-קרקעי",
    "source": "gov",
    "category": "public"
  },
  {
    "id": "nahariya_240",
    "lat": 32.996439,
    "lon": 35.098498,
    "name": "מקלט 240 - אפרים שריר 32",
    "address": "אפרים שריר 32",
    "city": "נהריה",
    "capacity": "",
    "type": "מקלט תת-קרקעי",
    "source": "gov",
    "category": "public"
  },
  {
    "id": "nahariya_241",
    "lat": 32.99921,
    "lon": 35.1007653,
    "name": "מקלט 241 - יפה נוף 43",
    "address": "יפה נוף 43",
    "city": "נהריה",
    "capacity": "",
    "type": "מקלט תת-קרקעי",
    "source": "gov",
    "category": "public"
  },
  {
    "id": "nahariya_242",
    "lat": 32.99921,
    "lon": 35.1007653,
    "name": "מקלט 242 - יפה נוף 32",
    "address": "יפה נוף 32",
    "city": "נהריה",
    "capacity": "",
    "type": "מקלט תת-קרקעי",
    "source": "gov",
    "category": "public"
  },
  {
    "id": "nahariya_243",
    "lat": 33.002362,
    "lon": 35.103142,
    "name": "מקלט 243 - עזרא 23",
    "address": "עזרא 23",
    "city": "נהריה",
    "capacity": "",
    "type": "מקלט תת-קרקעי",
    "source": "gov",
    "category": "public"
  },
  {
    "id": "nahariya_244",
    "lat": 32.99921,
    "lon": 35.1007653,
    "name": "מקלט 244 - יפה נוף 16",
    "address": "יפה נוף 16",
    "city": "נהריה",
    "capacity": "",
    "type": "מקלט נגיש",
    "source": "gov",
    "category": "public"
  },
  {
    "id": "nahariya_300",
    "lat": 33.0044916,
    "lon": 35.1033544,
    "name": "מקלט 300 - אשכול 24",
    "address": "אשכול 24",
    "city": "נהריה",
    "capacity": "",
    "type": "מקלט תת-קרקעי",
    "source": "gov",
    "category": "public"
  },
  {
    "id": "nahariya_301",
    "lat": 33.0103571,
    "lon": 35.1059676,
    "name": "מקלט 301 - רבי עקיבא 1",
    "address": "רבי עקיבא 1",
    "city": "נהריה",
    "capacity": "",
    "type": "מקלט תת-קרקעי",
    "source": "gov",
    "category": "public"
  },
  {
    "id": "nahariya_302",
    "lat": 33.0136351,
    "lon": 35.1034945,
    "name": "מקלט 302 - קיבוץ גלויות 47",
    "address": "קיבוץ גלויות 47",
    "city": "נהריה",
    "capacity": "",
    "type": "מקלט תת-קרקעי",
    "source": "gov",
    "category": "public"
  },
  {
    "id": "nahariya_303",
    "lat": 33.0086961,
    "lon": 35.1039911,
    "name": "מקלט 303 - אביר יעקב 31",
    "address": "אביר יעקב 31",
    "city": "נהריה",
    "capacity": "",
    "type": "מקלט תת-קרקעי",
    "source": "gov",
    "category": "public"
  },
  {
    "id": "nahariya_304",
    "lat": 33.006256,
    "lon": 35.1040427,
    "name": "מקלט 304 - השרון 96",
    "address": "השרון 96",
    "city": "נהריה",
    "capacity": "",
    "type": "מקלט תת-קרקעי",
    "source": "gov",
    "category": "public"
  },
  {
    "id": "nahariya_309",
    "lat": 33.0070418,
    "lon": 35.1019265,
    "name": "מקלט 309 - הגלעד 7",
    "address": "הגלעד 7",
    "city": "נהריה",
    "capacity": "",
    "type": "מקלט נגיש",
    "source": "gov",
    "category": "public"
  },
  {
    "id": "nahariya_314",
    "lat": 33.007898,
    "lon": 35.099966,
    "name": "מקלט 314 - דרך יחיעם",
    "address": "דרך יחיעם",
    "city": "נהריה",
    "capacity": "",
    "type": "מקלט תת-קרקעי",
    "source": "gov",
    "category": "public"
  },
  {
    "id": "nahariya_315",
    "lat": 33.0086961,
    "lon": 35.1039911,
    "name": "מקלט 315 - אביר יעקב 11",
    "address": "אביר יעקב 11",
    "city": "נהריה",
    "capacity": "",
    "type": "מקלט תת-קרקעי",
    "source": "gov",
    "category": "public"
  },
  {
    "id": "nahariya_317",
    "lat": 33.0083714,
    "lon": 35.1013169,
    "name": "מקלט 317 - חנה סנש",
    "address": "חנה סנש",
    "city": "נהריה",
    "capacity": "",
    "type": "מקלט תת-קרקעי",
    "source": "gov",
    "category": "public"
  },
  {
    "id": "nahariya_318",
    "lat": 33.0067019,
    "lon": 35.1011871,
    "name": "מקלט 318 - וייסבורג 7",
    "address": "וייסבורג 7",
    "city": "נהריה",
    "capacity": "",
    "type": "מקלט תת-קרקעי",
    "source": "gov",
    "category": "public"
  },
  {
    "id": "nahariya_319",
    "lat": 33.0060016,
    "lon": 35.1052147,
    "name": "מקלט 319 - עמק יזרעאל 10",
    "address": "עמק יזרעאל 10",
    "city": "נהריה",
    "capacity": "",
    "type": "מקלט תת-קרקעי",
    "source": "gov",
    "category": "public"
  },
  {
    "id": "nahariya_320",
    "lat": 33.0089094,
    "lon": 35.1064372,
    "name": "מקלט 320 - השיירה 2",
    "address": "השיירה 2",
    "city": "נהריה",
    "capacity": "",
    "type": "מקלט תת-קרקעי",
    "source": "gov",
    "category": "public"
  },
  {
    "id": "nahariya_367",
    "lat": 33.0056852,
    "lon": 35.0994177,
    "name": "מקלט 367 - בן צבי 23",
    "address": "בן צבי 23",
    "city": "נהריה",
    "capacity": "",
    "type": "מקלט תת-קרקעי",
    "source": "gov",
    "category": "public"
  },
  {
    "id": "nahariya_368",
    "lat": 33.0083714,
    "lon": 35.1013169,
    "name": "מקלט 368 - חנה סנש 13",
    "address": "חנה סנש 13",
    "city": "נהריה",
    "capacity": "",
    "type": "מקלט תת-קרקעי",
    "source": "gov",
    "category": "public"
  },
  {
    "id": "nahariya_369",
    "lat": 33.0136351,
    "lon": 35.1034945,
    "name": "מקלט 369 - קיבוץ גלויות 50",
    "address": "קיבוץ גלויות 50",
    "city": "נהריה",
    "capacity": "",
    "type": "מקלט תת-קרקעי",
    "source": "gov",
    "category": "public"
  },
  {
    "id": "nahariya_370",
    "lat": 33.0094233,
    "lon": 35.1102249,
    "name": "מקלט 370 - הזיתים 9",
    "address": "הזיתים 9",
    "city": "נהריה",
    "capacity": "",
    "type": "מקלט תת-קרקעי",
    "source": "gov",
    "category": "public"
  },
  {
    "id": "nahariya_372",
    "lat": 33.0064533,
    "lon": 35.1062445,
    "name": "מקלט 372 - הנגב 2",
    "address": "הנגב 2",
    "city": "נהריה",
    "capacity": "",
    "type": "מקלט תת-קרקעי",
    "source": "gov",
    "category": "public"
  },
  {
    "id": "nahariya_373",
    "lat": 33.006256,
    "lon": 35.1040427,
    "name": "מקלט 373 - השרון 11",
    "address": "השרון 11",
    "city": "נהריה",
    "capacity": "",
    "type": "מקלט תת-קרקעי",
    "source": "gov",
    "category": "public"
  },
  {
    "id": "nahariya_374",
    "lat": 33.0099043,
    "lon": 35.1077788,
    "name": "מקלט 374 - הרב מימון",
    "address": "הרב מימון",
    "city": "נהריה",
    "capacity": "",
    "type": "מקלט תת-קרקעי",
    "source": "gov",
    "category": "public"
  },
  {
    "id": "nahariya_375",
    "lat": 33.0136351,
    "lon": 35.1034945,
    "name": "מקלט 375 - קיבוץ גלויות 54",
    "address": "קיבוץ גלויות 54",
    "city": "נהריה",
    "capacity": "",
    "type": "מקלט תת-קרקעי",
    "source": "gov",
    "category": "public"
  },
  {
    "id": "nahariya_376",
    "lat": 33.0089094,
    "lon": 35.1064372,
    "name": "מקלט 376 - השיירה 18",
    "address": "השיירה 18",
    "city": "נהריה",
    "capacity": "",
    "type": "מקלט תת-קרקעי",
    "source": "gov",
    "category": "public"
  },
  {
    "id": "nahariya_377",
    "lat": 33.0103571,
    "lon": 35.1059676,
    "name": "מקלט 377 - רבי עקיבא 5",
    "address": "רבי עקיבא 5",
    "city": "נהריה",
    "capacity": "",
    "type": "מקלט תת-קרקעי",
    "source": "gov",
    "category": "public"
  },
  {
    "id": "nahariya_378",
    "lat": 33.0088992,
    "lon": 35.1087255,
    "name": "מקלט 378 - שביל הלל 3",
    "address": "שביל הלל 3",
    "city": "נהריה",
    "capacity": "",
    "type": "מקלט תת-קרקעי",
    "source": "gov",
    "category": "public"
  },
  {
    "id": "nahariya_379",
    "lat": 33.006256,
    "lon": 35.1040427,
    "name": "מקלט 379 - השרון 19",
    "address": "השרון 19",
    "city": "נהריה",
    "capacity": "",
    "type": "מקלט תת-קרקעי",
    "source": "gov",
    "category": "public"
  },
  {
    "id": "nahariya_380",
    "lat": 33.010438,
    "lon": 35.106261,
    "name": "מקלט 380 - דרך סטרומה 3",
    "address": "דרך סטרומה 3",
    "city": "נהריה",
    "capacity": "",
    "type": "מקלט תת-קרקעי",
    "source": "gov",
    "category": "public"
  },
  {
    "id": "nahariya_381",
    "lat": 33.0067019,
    "lon": 35.1011871,
    "name": "מקלט 381 - וייסבורג 9",
    "address": "וייסבורג 9",
    "city": "נהריה",
    "capacity": "",
    "type": "מקלט תת-קרקעי",
    "source": "gov",
    "category": "public"
  },
  {
    "id": "nahariya_382",
    "lat": 33.0136351,
    "lon": 35.1034945,
    "name": "מקלט 382 - קיבוץ גלויות 59",
    "address": "קיבוץ גלויות 59",
    "city": "נהריה",
    "capacity": "",
    "type": "מקלט תת-קרקעי",
    "source": "gov",
    "category": "public"
  },
  {
    "id": "nahariya_383",
    "lat": 33.0083714,
    "lon": 35.1013169,
    "name": "מקלט 383 - חנה סנש 7",
    "address": "חנה סנש 7",
    "city": "נהריה",
    "capacity": "",
    "type": "מקלט תת-קרקעי",
    "source": "gov",
    "category": "public"
  },
  {
    "id": "nahariya_384",
    "lat": 33.0076191,
    "lon": 35.0998818,
    "name": "מקלט 384 - יחיעם 1",
    "address": "יחיעם 1",
    "city": "נהריה",
    "capacity": "",
    "type": "מקלט תת-קרקעי",
    "source": "gov",
    "category": "public"
  },
  {
    "id": "nahariya_385",
    "lat": 33.0136351,
    "lon": 35.1034945,
    "name": "מקלט 385 - קיבוץ גלויות 53",
    "address": "קיבוץ גלויות 53",
    "city": "נהריה",
    "capacity": "",
    "type": "מקלט תת-קרקעי",
    "source": "gov",
    "category": "public"
  },
  {
    "id": "nahariya_387",
    "lat": 33.0095175,
    "lon": 35.1018503,
    "name": "מקלט 387 - נחלת אשר 22",
    "address": "נחלת אשר 22",
    "city": "נהריה",
    "capacity": "",
    "type": "מקלט תת-קרקעי",
    "source": "gov",
    "category": "public"
  },
  {
    "id": "nahariya_388",
    "lat": 33.0086961,
    "lon": 35.1039911,
    "name": "מקלט 388 - אביר יעקב 24",
    "address": "אביר יעקב 24",
    "city": "נהריה",
    "capacity": "",
    "type": "מקלט תת-קרקעי",
    "source": "gov",
    "category": "public"
  },
  {
    "id": "nahariya_389",
    "lat": 33.0076191,
    "lon": 35.0998818,
    "name": "מקלט 389 - יחיעם 40",
    "address": "יחיעם 40",
    "city": "נהריה",
    "capacity": "",
    "type": "מקלט תת-קרקעי",
    "source": "gov",
    "category": "public"
  },
  {
    "id": "nahariya_390",
    "lat": 33.0076191,
    "lon": 35.0998818,
    "name": "מקלט 390 - יחיעם 2",
    "address": "יחיעם 2",
    "city": "נהריה",
    "capacity": "",
    "type": "מקלט תת-קרקעי",
    "source": "gov",
    "category": "public"
  },
  {
    "id": "nahariya_391",
    "lat": 33.0088992,
    "lon": 35.1087255,
    "name": "מקלט 391 - שביל הלל",
    "address": "שביל הלל",
    "city": "נהריה",
    "capacity": "",
    "type": "מקלט תת-קרקעי",
    "source": "gov",
    "category": "public"
  },
  {
    "id": "nahariya_392",
    "lat": 33.0076191,
    "lon": 35.0998818,
    "name": "מקלט 392 - יחיעם 41",
    "address": "יחיעם 41",
    "city": "נהריה",
    "capacity": "",
    "type": "מקלט תת-קרקעי",
    "source": "gov",
    "category": "public"
  },
  {
    "id": "nahariya_393",
    "lat": 33.006256,
    "lon": 35.1040427,
    "name": "מקלט 393 - השרון 1",
    "address": "השרון 1",
    "city": "נהריה",
    "capacity": "",
    "type": "מקלט תת-קרקעי",
    "source": "gov",
    "category": "public"
  },
  {
    "id": "nahariya_394",
    "lat": 33.006256,
    "lon": 35.1040427,
    "name": "מקלט 394 - השרון 19",
    "address": "השרון 19",
    "city": "נהריה",
    "capacity": "",
    "type": "מקלט תת-קרקעי",
    "source": "gov",
    "category": "public"
  },
  {
    "id": "nahariya_395",
    "lat": 33.0064099,
    "lon": 35.1023097,
    "name": "מקלט 395 - הגלעד 1",
    "address": "הגלעד 1",
    "city": "נהריה",
    "capacity": "",
    "type": "מקלט תת-קרקעי",
    "source": "gov",
    "category": "public"
  },
  {
    "id": "nahariya_396",
    "lat": 33.0103571,
    "lon": 35.1059676,
    "name": "מקלט 396 - רבי עקיבא 24",
    "address": "רבי עקיבא 24",
    "city": "נהריה",
    "capacity": "",
    "type": "מקלט תת-קרקעי",
    "source": "gov",
    "category": "public"
  },
  {
    "id": "nahariya_397",
    "lat": 33.0086961,
    "lon": 35.1039911,
    "name": "מקלט 397 - אביר יעקב 27",
    "address": "אביר יעקב 27",
    "city": "נהריה",
    "capacity": "",
    "type": "מקלט תת-קרקעי",
    "source": "gov",
    "category": "public"
  },
  {
    "id": "nahariya_398",
    "lat": 33.0095175,
    "lon": 35.1018503,
    "name": "מקלט 398 - נחלת אשר 25",
    "address": "נחלת אשר 25",
    "city": "נהריה",
    "capacity": "",
    "type": "מקלט תת-קרקעי",
    "source": "gov",
    "category": "public"
  },
  {
    "id": "nahariya_399",
    "lat": 33.0136351,
    "lon": 35.1034945,
    "name": "מקלט 399 - קיבוץ גלויות 55",
    "address": "קיבוץ גלויות 55",
    "city": "נהריה",
    "capacity": "",
    "type": "מקלט תת-קרקעי",
    "source": "gov",
    "category": "public"
  },
  {
    "id": "nahariya_400",
    "lat": 33.0255512,
    "lon": 35.1075536,
    "name": "מקלט 400 - יהודה המכבי 26",
    "address": "יהודה המכבי 26",
    "city": "נהריה",
    "capacity": "",
    "type": "מקלט תת-קרקעי",
    "source": "gov",
    "category": "public"
  },
  {
    "id": "nahariya_407",
    "lat": 33.0192248,
    "lon": 35.1065844,
    "name": "מקלט 407 - החשמונאים 4",
    "address": "החשמונאים 4",
    "city": "נהריה",
    "capacity": "",
    "type": "מקלט תת-קרקעי",
    "source": "gov",
    "category": "public"
  },
  {
    "id": "nahariya_408",
    "lat": 33.020969,
    "lon": 35.108593,
    "name": "מקלט 408 - החלוץ 37",
    "address": "החלוץ 37",
    "city": "נהריה",
    "capacity": "",
    "type": "מקלט תת-קרקעי",
    "source": "gov",
    "category": "public"
  },
  {
    "id": "nahariya_409",
    "lat": 33.0192248,
    "lon": 35.1065844,
    "name": "מקלט 409 - החשמונאים 11",
    "address": "החשמונאים 11",
    "city": "נהריה",
    "capacity": "",
    "type": "מקלט תת-קרקעי",
    "source": "gov",
    "category": "public"
  },
  {
    "id": "nahariya_410",
    "lat": 33.020969,
    "lon": 35.108593,
    "name": "מקלט 410 - החלוץ 67",
    "address": "החלוץ 67",
    "city": "נהריה",
    "capacity": "",
    "type": "מקלט תת-קרקעי",
    "source": "gov",
    "category": "public"
  },
  {
    "id": "nahariya_411",
    "lat": 33.020969,
    "lon": 35.108593,
    "name": "מקלט 411 - החלוץ 26",
    "address": "החלוץ 26",
    "city": "נהריה",
    "capacity": "",
    "type": "מקלט עילי",
    "source": "gov",
    "category": "public"
  },
  {
    "id": "nahariya_412",
    "lat": 33.0255512,
    "lon": 35.1075536,
    "name": "מקלט 412 - יהודה המכבי 17",
    "address": "יהודה המכבי 17",
    "city": "נהריה",
    "capacity": "",
    "type": "מקלט תת-קרקעי",
    "source": "gov",
    "category": "public"
  },
  {
    "id": "nahariya_413",
    "lat": 33.0255512,
    "lon": 35.1075536,
    "name": "מקלט 413 - יהודה המכבי 29",
    "address": "יהודה המכבי 29",
    "city": "נהריה",
    "capacity": "",
    "type": "מקלט תת-קרקעי",
    "source": "gov",
    "category": "public"
  },
  {
    "id": "nahariya_414",
    "lat": 33.020969,
    "lon": 35.108593,
    "name": "מקלט 414 - החלוץ 59",
    "address": "החלוץ 59",
    "city": "נהריה",
    "capacity": "",
    "type": "מקלט תת-קרקעי",
    "source": "gov",
    "category": "public"
  },
  {
    "id": "nahariya_415",
    "lat": 33.0224872,
    "lon": 35.1072253,
    "name": "מקלט 415 - טרומפלדור 15",
    "address": "טרומפלדור 15",
    "city": "נהריה",
    "capacity": "",
    "type": "מקלט תת-קרקעי",
    "source": "gov",
    "category": "public"
  },
  {
    "id": "nahariya_416",
    "lat": 33.0224872,
    "lon": 35.1072253,
    "name": "מקלט 416 - טרומפלדור 30",
    "address": "טרומפלדור 30",
    "city": "נהריה",
    "capacity": "",
    "type": "מקלט תת-קרקעי",
    "source": "gov",
    "category": "public"
  },
  {
    "id": "nahariya_417",
    "lat": 33.020969,
    "lon": 35.108593,
    "name": "מקלט 417 - החלוץ 14",
    "address": "החלוץ 14",
    "city": "נהריה",
    "capacity": "",
    "type": "מקלט תת-קרקעי",
    "source": "gov",
    "category": "public"
  },
  {
    "id": "nahariya_418",
    "lat": 33.020969,
    "lon": 35.108593,
    "name": "מקלט 418 - החלוץ 51",
    "address": "החלוץ 51",
    "city": "נהריה",
    "capacity": "",
    "type": "מקלט תת-קרקעי",
    "source": "gov",
    "category": "public"
  },
  {
    "id": "nahariya_419",
    "lat": 33.0192248,
    "lon": 35.1065844,
    "name": "מקלט 419 - החשמונאים 11",
    "address": "החשמונאים 11",
    "city": "נהריה",
    "capacity": "",
    "type": "מקלט תת-קרקעי",
    "source": "gov",
    "category": "public"
  },
  {
    "id": "nahariya_420",
    "lat": 33.0222994,
    "lon": 35.1096136,
    "name": "מקלט 420 - כ\"ג יורדי הסירה",
    "address": "כ\"ג יורדי הסירה",
    "city": "נהריה",
    "capacity": "",
    "type": "מקלט תת-קרקעי",
    "source": "gov",
    "category": "public"
  },
  {
    "id": "nahariya_421",
    "lat": 33.0255512,
    "lon": 35.1075536,
    "name": "מקלט 421 - יהודה המכבי 7",
    "address": "יהודה המכבי 7",
    "city": "נהריה",
    "capacity": "",
    "type": "מקלט תת-קרקעי",
    "source": "gov",
    "category": "public"
  },
  {
    "id": "nahariya_422",
    "lat": 33.0255512,
    "lon": 35.1075536,
    "name": "מקלט 422 - יהודה המכבי 18",
    "address": "יהודה המכבי 18",
    "city": "נהריה",
    "capacity": "",
    "type": "מקלט תת-קרקעי",
    "source": "gov",
    "category": "public"
  },
  {
    "id": "nahariya_423",
    "lat": 33.0255512,
    "lon": 35.1075536,
    "name": "מקלט 423 - יהודה המכבי 33",
    "address": "יהודה המכבי 33",
    "city": "נהריה",
    "capacity": "",
    "type": "מקלט תת-קרקעי",
    "source": "gov",
    "category": "public"
  },
  {
    "id": "nahariya_424",
    "lat": 33.020969,
    "lon": 35.108593,
    "name": "מקלט 424 - החלוץ 52",
    "address": "החלוץ 52",
    "city": "נהריה",
    "capacity": "",
    "type": "מקלט תת-קרקעי",
    "source": "gov",
    "category": "public"
  },
  {
    "id": "nahariya_425",
    "lat": 33.020969,
    "lon": 35.108593,
    "name": "מקלט 425 - החלוץ 14",
    "address": "החלוץ 14",
    "city": "נהריה",
    "capacity": "",
    "type": "מקלט תת-קרקעי",
    "source": "gov",
    "category": "public"
  },
  {
    "id": "nahariya_426",
    "lat": 33.0235149,
    "lon": 35.1097525,
    "name": "מקלט 426 - חומה ומגדל 8",
    "address": "חומה ומגדל 8",
    "city": "נהריה",
    "capacity": "",
    "type": "מקלט תת-קרקעי",
    "source": "gov",
    "category": "public"
  },
  {
    "id": "nahariya_427",
    "lat": 33.020969,
    "lon": 35.108593,
    "name": "מקלט 427 - החלוץ 5",
    "address": "החלוץ 5",
    "city": "נהריה",
    "capacity": "",
    "type": "מקלט תת-קרקעי",
    "source": "gov",
    "category": "public"
  },
  {
    "id": "nahariya_428",
    "lat": 33.0224872,
    "lon": 35.1072253,
    "name": "מקלט 428 - טרומפלדור 3",
    "address": "טרומפלדור 3",
    "city": "נהריה",
    "capacity": "",
    "type": "מקלט תת-קרקעי",
    "source": "gov",
    "category": "public"
  },
  {
    "id": "nahariya_429",
    "lat": 33.0224872,
    "lon": 35.1072253,
    "name": "מקלט 429 - טרומפלדור 18",
    "address": "טרומפלדור 18",
    "city": "נהריה",
    "capacity": "",
    "type": "מקלט תת-קרקעי",
    "source": "gov",
    "category": "public"
  },
  {
    "id": "nahariya_430",
    "lat": 33.0224872,
    "lon": 35.1072253,
    "name": "מקלט 430 - טרומפלדור 43",
    "address": "טרומפלדור 43",
    "city": "נהריה",
    "capacity": "",
    "type": "מקלט תת-קרקעי",
    "source": "gov",
    "category": "public"
  },
  {
    "id": "nahariya_431",
    "lat": 33.0224872,
    "lon": 35.1072253,
    "name": "מקלט 431 - טרומפלדור 36",
    "address": "טרומפלדור 36",
    "city": "נהריה",
    "capacity": "",
    "type": "מקלט תת-קרקעי",
    "source": "gov",
    "category": "public"
  },
  {
    "id": "nahariya_432",
    "lat": 33.020969,
    "lon": 35.108593,
    "name": "מקלט 432 - החלוץ 47",
    "address": "החלוץ 47",
    "city": "נהריה",
    "capacity": "",
    "type": "מקלט תת-קרקעי",
    "source": "gov",
    "category": "public"
  },
  {
    "id": "nahariya_433",
    "lat": 33.020969,
    "lon": 35.108593,
    "name": "מקלט 433 - החלוץ 51",
    "address": "החלוץ 51",
    "city": "נהריה",
    "capacity": "",
    "type": "מקלט תת-קרקעי",
    "source": "gov",
    "category": "public"
  },
  {
    "id": "nahariya_434",
    "lat": 33.020969,
    "lon": 35.108593,
    "name": "מקלט 434 - החלוץ 39",
    "address": "החלוץ 39",
    "city": "נהריה",
    "capacity": "",
    "type": "מקלט תת-קרקעי",
    "source": "gov",
    "category": "public"
  },
  {
    "id": "nahariya_435",
    "lat": 33.020969,
    "lon": 35.108593,
    "name": "מקלט 435 - החלוץ 30",
    "address": "החלוץ 30",
    "city": "נהריה",
    "capacity": "",
    "type": "מקלט תת-קרקעי",
    "source": "gov",
    "category": "public"
  },
  {
    "id": "nahariya_436",
    "lat": 33.020969,
    "lon": 35.108593,
    "name": "מקלט 436 - החלוץ 10",
    "address": "החלוץ 10",
    "city": "נהריה",
    "capacity": "",
    "type": "מקלט תת-קרקעי",
    "source": "gov",
    "category": "public"
  },
  {
    "id": "nahariya_437",
    "lat": 33.020969,
    "lon": 35.108593,
    "name": "מקלט 437 - החלוץ 22",
    "address": "החלוץ 22",
    "city": "נהריה",
    "capacity": "",
    "type": "מקלט תת-קרקעי",
    "source": "gov",
    "category": "public"
  },
  {
    "id": "nahariya_438",
    "lat": 33.020969,
    "lon": 35.108593,
    "name": "מקלט 438 - החלוץ 45",
    "address": "החלוץ 45",
    "city": "נהריה",
    "capacity": "",
    "type": "מקלט תת-קרקעי",
    "source": "gov",
    "category": "public"
  },
  {
    "id": "nahariya_439",
    "lat": 33.020969,
    "lon": 35.108593,
    "name": "מקלט 439 - החלוץ 69",
    "address": "החלוץ 69",
    "city": "נהריה",
    "capacity": "",
    "type": "מקלט תת-קרקעי",
    "source": "gov",
    "category": "public"
  },
  {
    "id": "nahariya_440",
    "lat": 33.0231516,
    "lon": 35.1081791,
    "name": "מקלט 440 - זמנהוף 5",
    "address": "זמנהוף 5",
    "city": "נהריה",
    "capacity": "",
    "type": "מקלט תת-קרקעי",
    "source": "gov",
    "category": "public"
  },
  {
    "id": "nahariya_441",
    "lat": 33.020969,
    "lon": 35.108593,
    "name": "מקלט 441 - החלוץ 35",
    "address": "החלוץ 35",
    "city": "נהריה",
    "capacity": "",
    "type": "מקלט תת-קרקעי",
    "source": "gov",
    "category": "public"
  },
  {
    "id": "nahariya_442",
    "lat": 33.020969,
    "lon": 35.108593,
    "name": "מקלט 442 - החלוץ 52",
    "address": "החלוץ 52",
    "city": "נהריה",
    "capacity": "",
    "type": "מקלט תת-קרקעי",
    "source": "gov",
    "category": "public"
  },
  {
    "id": "nahariya_507",
    "lat": 33.017119,
    "lon": 35.0931169,
    "name": "מקלט 507 - ארלוזורוב 40",
    "address": "ארלוזורוב 40",
    "city": "נהריה",
    "capacity": "",
    "type": "מקלט תת-קרקעי",
    "source": "gov",
    "category": "public"
  },
  {
    "id": "nahariya_508",
    "lat": 33.0190001,
    "lon": 35.0953385,
    "name": "מקלט 508 - הגדוד העברי 10",
    "address": "הגדוד העברי 10",
    "city": "נהריה",
    "capacity": "",
    "type": "מקלט תת-קרקעי",
    "source": "gov",
    "category": "public"
  },
  {
    "id": "nahariya_509",
    "lat": 33.0087731,
    "lon": 35.0905175,
    "name": "מקלט 509 - העליה 7",
    "address": "העליה 7",
    "city": "נהריה",
    "capacity": "",
    "type": "מקלט תת-קרקעי",
    "source": "gov",
    "category": "public"
  },
  {
    "id": "nahariya_510",
    "lat": 33.0176882,
    "lon": 35.0964873,
    "name": "מקלט 510 - ההגנה 38",
    "address": "ההגנה 38",
    "city": "נהריה",
    "capacity": "",
    "type": "מקלט תת-קרקעי",
    "source": "gov",
    "category": "public"
  },
  {
    "id": "nahariya_512",
    "lat": 33.0266027,
    "lon": 35.0986936,
    "name": "מקלט 512 - בן גאון 18",
    "address": "בן גאון 18",
    "city": "נהריה",
    "capacity": "",
    "type": "מקלט תת-קרקעי",
    "source": "gov",
    "category": "public"
  },
  {
    "id": "nahariya_513",
    "lat": 33.0229145,
    "lon": 35.1001478,
    "name": "מקלט 513 - יצחק שדה 1",
    "address": "יצחק שדה 1",
    "city": "נהריה",
    "capacity": "",
    "type": "מקלט תת-קרקעי",
    "source": "gov",
    "category": "public"
  },
  {
    "id": "nahariya_514",
    "lat": 33.017119,
    "lon": 35.0931169,
    "name": "מקלט 514 - ארלוזורוב 44",
    "address": "ארלוזורוב 44",
    "city": "נהריה",
    "capacity": "",
    "type": "מקלט עילי",
    "source": "gov",
    "category": "public"
  },
  {
    "id": "nahariya_515",
    "lat": 33.017119,
    "lon": 35.0931169,
    "name": "מקלט 515 - ארלוזורוב 19",
    "address": "ארלוזורוב 19",
    "city": "נהריה",
    "capacity": "",
    "type": "מקלט נגיש",
    "source": "gov",
    "category": "public"
  },
  {
    "id": "nahariya_516",
    "lat": 33.0211207,
    "lon": 35.0942888,
    "name": "מקלט 516 - ההדס 4",
    "address": "ההדס 4",
    "city": "נהריה",
    "capacity": "",
    "type": "מקלט תת-קרקעי",
    "source": "gov",
    "category": "public"
  },
  {
    "id": "nahariya_517",
    "lat": 33.0215165,
    "lon": 35.0959198,
    "name": "מקלט 517 - ביאליק 7",
    "address": "ביאליק 7",
    "city": "נהריה",
    "capacity": "",
    "type": "מקלט תת-קרקעי",
    "source": "gov",
    "category": "public"
  },
  {
    "id": "nahariya_521",
    "lat": 33.017119,
    "lon": 35.0931169,
    "name": "מקלט 521 - ארלוזורוב 27",
    "address": "ארלוזורוב 27",
    "city": "נהריה",
    "capacity": "",
    "type": "מקלט תת-קרקעי",
    "source": "gov",
    "category": "public"
  },
  {
    "id": "nahariya_522",
    "lat": 33.0174278,
    "lon": 35.0943187,
    "name": "מקלט 522 - יבנה 1",
    "address": "יבנה 1",
    "city": "נהריה",
    "capacity": "",
    "type": "מקלט תת-קרקעי",
    "source": "gov",
    "category": "public"
  },
  {
    "id": "nahariya_523",
    "lat": 33.0174278,
    "lon": 35.0943187,
    "name": "מקלט 523 - יבנה 6",
    "address": "יבנה 6",
    "city": "נהריה",
    "capacity": "",
    "type": "מקלט תת-קרקעי",
    "source": "gov",
    "category": "public"
  },
  {
    "id": "nahariya_524",
    "lat": 33.0165916,
    "lon": 35.1032998,
    "name": "מקלט 524 - מסריק 29",
    "address": "מסריק 29",
    "city": "נהריה",
    "capacity": "",
    "type": "מקלט תת-קרקעי",
    "source": "gov",
    "category": "public"
  },
  {
    "id": "nahariya_526",
    "lat": 33.023223,
    "lon": 35.1012938,
    "name": "מקלט 526 - קרן קיימת לישראל",
    "address": "קרן קיימת לישראל",
    "city": "נהריה",
    "capacity": "",
    "type": "מקלט תת-קרקעי",
    "source": "gov",
    "category": "public"
  },
  {
    "id": "nahariya_527",
    "lat": 33.017119,
    "lon": 35.0931169,
    "name": "מקלט 527 - ארלוזורוב 43",
    "address": "ארלוזורוב 43",
    "city": "נהריה",
    "capacity": "",
    "type": "מקלט תת-קרקעי",
    "source": "gov",
    "category": "public"
  },
  {
    "id": "nahariya_529",
    "lat": 33.0176882,
    "lon": 35.0964873,
    "name": "מקלט 529 - ההגנה 5",
    "address": "ההגנה 5",
    "city": "נהריה",
    "capacity": "",
    "type": "מקלט תת-קרקעי",
    "source": "gov",
    "category": "public"
  },
  {
    "id": "nahariya_530",
    "lat": 33.0176882,
    "lon": 35.0964873,
    "name": "מקלט 530 - ההגנה 38",
    "address": "ההגנה 38",
    "city": "נהריה",
    "capacity": "",
    "type": "מקלט תת-קרקעי",
    "source": "gov",
    "category": "public"
  },
  {
    "id": "nahariya_531",
    "lat": 33.0190001,
    "lon": 35.0953385,
    "name": "מקלט 531 - הגדוד העברי 6",
    "address": "הגדוד העברי 6",
    "city": "נהריה",
    "capacity": "",
    "type": "מקלט תת-קרקעי",
    "source": "gov",
    "category": "public"
  },
  {
    "id": "nahariya_532",
    "lat": 33.0227939,
    "lon": 35.0966374,
    "name": "מקלט 532 - הנרקיס 3",
    "address": "הנרקיס 3",
    "city": "נהריה",
    "capacity": "",
    "type": "מקלט תת-קרקעי",
    "source": "gov",
    "category": "public"
  },
  {
    "id": "nahariya_533",
    "lat": 33.017119,
    "lon": 35.0931169,
    "name": "מקלט 533 - ארלוזורוב 26",
    "address": "ארלוזורוב 26",
    "city": "נהריה",
    "capacity": "",
    "type": "מקלט תת-קרקעי",
    "source": "gov",
    "category": "public"
  },
  {
    "id": "nahariya_534",
    "lat": 33.0179517,
    "lon": 35.0942958,
    "name": "מקלט 534 - האשל 2",
    "address": "האשל 2",
    "city": "נהריה",
    "capacity": "",
    "type": "מקלט תת-קרקעי",
    "source": "gov",
    "category": "public"
  },
  {
    "id": "nahariya_535",
    "lat": 33.005512,
    "lon": 35.097968,
    "name": "מקלט 535 - הוורד 3",
    "address": "הוורד 3",
    "city": "נהריה",
    "capacity": "",
    "type": "מקלט תת-קרקעי",
    "source": "gov",
    "category": "public"
  },
  {
    "id": "nahariya_560",
    "lat": 33.0266027,
    "lon": 35.0986936,
    "name": "מקלט 560 - בן גאון 31",
    "address": "בן גאון 31",
    "city": "נהריה",
    "capacity": "",
    "type": "מקלט תת-קרקעי",
    "source": "gov",
    "category": "public"
  },
  {
    "id": "nahariya_561",
    "lat": 33.0266027,
    "lon": 35.0986936,
    "name": "מקלט 561 - בן גאון 31",
    "address": "בן גאון 31",
    "city": "נהריה",
    "capacity": "",
    "type": "מקלט תת-קרקעי",
    "source": "gov",
    "category": "public"
  },
  {
    "id": "nahariya_562",
    "lat": 33.0176882,
    "lon": 35.0964873,
    "name": "מקלט 562 - ההגנה 44",
    "address": "ההגנה 44",
    "city": "נהריה",
    "capacity": "",
    "type": "מקלט תת-קרקעי",
    "source": "gov",
    "category": "public"
  },
  {
    "id": "nahariya_563",
    "lat": 33.0278657,
    "lon": 35.0979204,
    "name": "מקלט 563 - בורכוב 7",
    "address": "בורכוב 7",
    "city": "נהריה",
    "capacity": "",
    "type": "מקלט תת-קרקעי",
    "source": "gov",
    "category": "public"
  },
  {
    "id": "nahariya_700",
    "lat": 32.9883184,
    "lon": 35.0932317,
    "name": "מקלט 700 - הקישון 6",
    "address": "הקישון 6",
    "city": "נהריה",
    "capacity": "",
    "type": "מקלט תת-קרקעי",
    "source": "gov",
    "category": "public"
  },
  {
    "id": "nahariya_701",
    "lat": 33.0113988,
    "lon": 35.092915,
    "name": "מקלט 701 - נורדאו 18",
    "address": "נורדאו 18",
    "city": "נהריה",
    "capacity": "",
    "type": "מקלט תת-קרקעי",
    "source": "gov",
    "category": "public"
  },
  {
    "id": "nahariya_702",
    "lat": 33.0049493,
    "lon": 35.0988288,
    "name": "מקלט 702 - המיסדים 2",
    "address": "המיסדים 2",
    "city": "נהריה",
    "capacity": "",
    "type": "מקלט תת-קרקעי",
    "source": "gov",
    "category": "public"
  },
  {
    "id": "nahariya_711",
    "lat": 33.0015816,
    "lon": 35.0961587,
    "name": "מקלט 711 - קרן היסוד 20",
    "address": "קרן היסוד 20",
    "city": "נהריה",
    "capacity": "",
    "type": "מקלט תת-קרקעי",
    "source": "gov",
    "category": "public"
  },
  {
    "id": "nahariya_712",
    "lat": 33.0015727,
    "lon": 35.0904185,
    "name": "מקלט 712 - רמז 34",
    "address": "רמז 34",
    "city": "נהריה",
    "capacity": "",
    "type": "מקלט תת-קרקעי",
    "source": "gov",
    "category": "public"
  },
  {
    "id": "nahariya_717",
    "lat": 33.0015727,
    "lon": 35.0904185,
    "name": "מקלט 717 - רמז 33",
    "address": "רמז 33",
    "city": "נהריה",
    "capacity": "",
    "type": "מקלט תת-קרקעי",
    "source": "gov",
    "category": "public"
  },
  {
    "id": "nahariya_718",
    "lat": 33.0015727,
    "lon": 35.0904185,
    "name": "מקלט 718 - רמז 29",
    "address": "רמז 29",
    "city": "נהריה",
    "capacity": "",
    "type": "מקלט תת-קרקעי",
    "source": "gov",
    "category": "public"
  },
  {
    "id": "nahariya_719",
    "lat": 32.102339,
    "lon": 34.789687,
    "name": "מקלט 719 - שי עגנון 32",
    "address": "שי עגנון 32",
    "city": "נהריה",
    "capacity": "",
    "type": "מקלט תת-קרקעי",
    "source": "gov",
    "category": "public"
  },
  {
    "id": "nahariya_720",
    "lat": 32.9984448,
    "lon": 35.0885418,
    "name": "מקלט 720 - בלפור 35",
    "address": "בלפור 35",
    "city": "נהריה",
    "capacity": "",
    "type": "מקלט תת-קרקעי",
    "source": "gov",
    "category": "public"
  },
  {
    "id": "nahariya_721",
    "lat": 32.9984448,
    "lon": 35.0885418,
    "name": "מקלט 721 - בלפור 22",
    "address": "בלפור 22",
    "city": "נהריה",
    "capacity": "",
    "type": "מקלט תת-קרקעי",
    "source": "gov",
    "category": "public"
  },
  {
    "id": "nahariya_722",
    "lat": 32.9987817,
    "lon": 35.0920288,
    "name": "מקלט 722 - המגינים 4",
    "address": "המגינים 4",
    "city": "נהריה",
    "capacity": "",
    "type": "מקלט תת-קרקעי",
    "source": "gov",
    "category": "public"
  },
  {
    "id": "nahariya_723",
    "lat": 32.9987817,
    "lon": 35.0920288,
    "name": "מקלט 723 - המגינים 12",
    "address": "המגינים 12",
    "city": "נהריה",
    "capacity": "",
    "type": "מקלט תת-קרקעי",
    "source": "gov",
    "category": "public"
  },
  {
    "id": "nahariya_725",
    "lat": 33.0086598,
    "lon": 35.0903856,
    "name": "מקלט 725 - דוד אלעזר 1",
    "address": "דוד אלעזר 1",
    "city": "נהריה",
    "capacity": "",
    "type": "מקלט תת-קרקעי",
    "source": "gov",
    "category": "public"
  },
  {
    "id": "nahariya_731",
    "lat": 32.028211,
    "lon": 34.885309,
    "name": "מקלט 731 - דרך בר יהודה 6",
    "address": "דרך בר יהודה 6",
    "city": "נהריה",
    "capacity": "",
    "type": "מקלט נגיש",
    "source": "gov",
    "category": "public"
  },
  {
    "id": "nahariya_734",
    "lat": 33.0099435,
    "lon": 35.0924786,
    "name": "מקלט 734 - המיסדים 5",
    "address": "המיסדים 5",
    "city": "נהריה",
    "capacity": "",
    "type": "מקלט תת-קרקעי",
    "source": "gov",
    "category": "public"
  },
  {
    "id": "nahariya_736",
    "lat": 32.9996196,
    "lon": 35.0913973,
    "name": "מקלט 736 - קפלן 46",
    "address": "קפלן 46",
    "city": "נהריה",
    "capacity": "",
    "type": "מקלט תת-קרקעי",
    "source": "gov",
    "category": "public"
  },
  {
    "id": "nahariya_school_154",
    "lat": 33.002362,
    "lon": 35.103142,
    "name": "מקלט מקלט בית ספרי - עזרא 1",
    "address": "עזרא 1",
    "city": "נהריה",
    "capacity": "",
    "type": "מקלט בית ספרי",
    "source": "gov",
    "category": "school"
  },
  {
    "id": "nahariya_school_155",
    "lat": 33.0086961,
    "lon": 35.1039911,
    "name": "מקלט מקלט בית ספרי - אביר יעקב 15",
    "address": "אביר יעקב 15",
    "city": "נהריה",
    "capacity": "",
    "type": "מקלט בית ספרי",
    "source": "gov",
    "category": "school"
  },
  {
    "id": "nahariya_school_156",
    "lat": 33.0215165,
    "lon": 35.0959198,
    "name": "מקלט מקלט בית ספרי - ביאליק",
    "address": "ביאליק",
    "city": "נהריה",
    "capacity": "",
    "type": "מקלט בית ספרי",
    "source": "gov",
    "category": "school"
  },
  {
    "id": "nahariya_school_157",
    "lat": 32.1978605,
    "lon": 34.9092222,
    "name": "מקלט מקלט בית ספרי - האיריס 44",
    "address": "האיריס 44",
    "city": "נהריה",
    "capacity": "",
    "type": "מקלט בית ספרי",
    "source": "gov",
    "category": "school"
  },
  {
    "id": "nahariya_school_158",
    "lat": 32.9984448,
    "lon": 35.0885418,
    "name": "מקלט מקלט בית ספרי - בלפור 71",
    "address": "בלפור 71",
    "city": "נהריה",
    "capacity": "",
    "type": "מקלט בית ספרי",
    "source": "gov",
    "category": "school"
  },
  {
    "id": "nahariya_school_159",
    "lat": 33.0015727,
    "lon": 35.0904185,
    "name": "מקלט מקלט בית ספרי - רמז 8",
    "address": "רמז 8",
    "city": "נהריה",
    "capacity": "",
    "type": "מקלט בית ספרי",
    "source": "gov",
    "category": "school"
  },
  {
    "id": "nahariya_school_160",
    "lat": 33.0000685,
    "lon": 35.0912084,
    "name": "מקלט מקלט בית ספרי - ויצמן 88",
    "address": "ויצמן 88",
    "city": "נהריה",
    "capacity": "",
    "type": "מקלט בית ספרי",
    "source": "gov",
    "category": "school"
  },
  {
    "id": "nahariya_school_161",
    "lat": 33.0094522,
    "lon": 35.0993474,
    "name": "מקלט מקלט בית ספרי - פנחס לבון 1",
    "address": "פנחס לבון 1",
    "city": "נהריה",
    "capacity": "",
    "type": "מקלט בית ספרי",
    "source": "gov",
    "category": "school"
  }
]