[
  {
    "id": "אור-עקיבא-1",
    "lat": 32.511063,
    "lon": 34.917283,
    "name": "מקלט 2",
    "address": "יחיאל וייסנברג",
    "city": "אור עקיבא",
    "type": "מקלט ציבורי",
    "source": "gov",
    "category": "public",
    "addressEn": "יחיאל וייסנברג, אור עקיבא, ישראל"
  },
  {
    "id": "אור-עקיבא-2",
    "lat": 32.5102153,
    "lon": 34.9167588,
    "name": "מקלט 4",
    "address": "הרצל",
    "city": "אור עקיבא",
    "type": "מקלט ציבורי",
    "source": "gov",
    "category": "public",
    "addressEn": "הרצל, אור עקיבא, ישראל"
  },
  {
    "id": "אור-עקיבא-3",
    "lat": 32.5096842,
    "lon": 34.9168895,
    "name": "מקלט 5",
    "address": "איחוד העם 9",
    "city": "אור עקיבא",
    "type": "מקלט ציבורי",
    "source": "gov",
    "category": "public",
    "addressEn": "איחוד העם, אור עקיבא, ישראל"
  },
  {
    "id": "אור-עקיבא-4",
    "lat": 32.50863,
    "lon": 34.9184894,
    "name": "מקלט 6",
    "address": "בלפור גן המייסדים",
    "city": "אור עקיבא",
    "type": "מקלט ציבורי",
    "source": "gov",
    "category": "public",
    "addressEn": "בלפור, אור עקיבא, ישראל"
  },
  {
    "id": "אור-עקיבא-5",
    "lat": 32.5103943,
    "lon": 34.9181607,
    "name": "מקלט 7",
    "address": "הרצל פינת ביאליק 6",
    "city": "אור עקיבא",
    "type": "מקלט ציבורי",
    "source": "gov",
    "category": "public",
    "addressEn": "הרצל 6, אור עקיבא, ישראל"
  },
  {
    "id": "אור-עקיבא-6",
    "lat": 32.513288,
    "lon": 34.9125487,
    "name": "מקלט 8",
    "address": "ביאליק פינת מנחם חכם",
    "city": "אור עקיבא",
    "type": "מקלט ציבורי",
    "source": "gov",
    "category": "public",
    "addressEn": "ביאליק, אור עקיבא, ישראל"
  },
  {
    "id": "אור-עקיבא-7",
    "lat": 32.5089726,
    "lon": 34.9207673,
    "name": "מקלט 9",
    "address": "הנביאים 6",
    "city": "אור עקיבא",
    "type": "מקלט ציבורי",
    "source": "gov",
    "category": "public",
    "addressEn": "הנביאים 6, אור עקיבא, ישראל"
  },
  {
    "id": "אור-עקיבא-8",
    "lat": 32.50932150000001,
    "lon": 34.9209572,
    "name": "מקלט 10",
    "address": "הנביאים 7",
    "city": "אור עקיבא",
    "type": "מקלט ציבורי",
    "source": "gov",
    "category": "public",
    "addressEn": "הנביאים 7, אור עקיבא, ישראל"
  },
  {
    "id": "אור-עקיבא-9",
    "lat": 32.5067663,
    "lon": 34.9223077,
    "name": "מקלט 11",
    "address": "בין הרב קוק לז'בוטינסקי",
    "city": "אור עקיבא",
    "type": "מקלט ציבורי",
    "source": "gov",
    "category": "public",
    "addressEn": "הרב קוק, אור עקיבא, ישראל"
  },
  {
    "id": "אור-עקיבא-10",
    "lat": 32.505629,
    "lon": 34.9210915,
    "name": "מקלט 12",
    "address": "חללי דק\"ר 648",
    "city": "אור עקיבא",
    "type": "מקלט ציבורי",
    "source": "gov",
    "category": "public",
    "addressEn": "חללי דקר, אור עקיבא, ישראל"
  },
  {
    "id": "אור-עקיבא-11",
    "lat": 32.5045603,
    "lon": 34.9249055,
    "name": "מקלט 13",
    "address": "גני אור ניל\"י 13",
    "city": "אור עקיבא",
    "type": "מקלט ציבורי",
    "source": "gov",
    "category": "public",
    "addressEn": "ניל\"י 13, אור עקיבא, ישראל"
  },
  {
    "id": "אור-עקיבא-12",
    "lat": 32.503681,
    "lon": 34.92493109999999,
    "name": "מקלט 14",
    "address": "גני אור ניל\"י 33",
    "city": "אור עקיבא",
    "type": "מקלט ציבורי",
    "source": "gov",
    "category": "public",
    "addressEn": "ניל\"י 33, אור עקיבא, ישראל"
  },
  {
    "id": "אור-עקיבא-13",
    "lat": 32.502784,
    "lon": 34.92227099999999,
    "name": "מקלט 15",
    "address": "גני אור ניל\"י 58",
    "city": "אור עקיבא",
    "type": "מקלט ציבורי",
    "source": "gov",
    "category": "public",
    "addressEn": "ניל\"י 58, אור עקיבא, ישראל"
  },
  {
    "id": "אור-עקיבא-14",
    "lat": 32.504451,
    "lon": 34.92546,
    "name": "מקלט 16",
    "address": "גני אור ניל\"י 98",
    "city": "אור עקיבא",
    "type": "מקלט ציבורי",
    "source": "gov",
    "category": "public",
    "addressEn": "ניל\"י 98, אור עקיבא, ישראל"
  },
  {
    "id": "אור-עקיבא-15",
    "lat": 32.500196,
    "lon": 34.92535900000001,
    "name": "מקלט 17",
    "address": "הורד 37",
    "city": "אור עקיבא",
    "type": "מקלט ציבורי",
    "source": "gov",
    "category": "public",
    "addressEn": "הורד 37, אור עקיבא, ישראל"
  },
  {
    "id": "אור-עקיבא-16",
    "lat": 32.4988099,
    "lon": 34.9250272,
    "name": "מקלט 18",
    "address": "התאנה 4",
    "city": "אור עקיבא",
    "type": "מקלט ציבורי",
    "source": "gov",
    "category": "public",
    "addressEn": "התאנה 4, אור עקיבא, ישראל"
  },
  {
    "id": "אור-עקיבא-17",
    "lat": 32.498138,
    "lon": 34.92585,
    "name": "מקלט 19",
    "address": "האירוס 36",
    "city": "אור עקיבא",
    "type": "מקלט ציבורי",
    "source": "gov",
    "category": "public",
    "addressEn": "האירוס 36, אור עקיבא, ישראל"
  },
  {
    "id": "אור-עקיבא-18",
    "lat": 32.496656,
    "lon": 34.925285,
    "name": "מקלט 20",
    "address": "האירוס 63",
    "city": "אור עקיבא",
    "type": "מקלט ציבורי",
    "source": "gov",
    "category": "public",
    "addressEn": "האירוס 63, אור עקיבא, ישראל"
  },
  {
    "id": "אור-עקיבא-19",
    "lat": 32.496929,
    "lon": 34.923418,
    "name": "מקלט 21",
    "address": "הנרקיס 36",
    "city": "אור עקיבא",
    "type": "מקלט ציבורי",
    "source": "gov",
    "category": "public",
    "addressEn": "הנרקיס 36, אור עקיבא, ישראל"
  },
  {
    "id": "אור-עקיבא-20",
    "lat": 32.4971437,
    "lon": 34.9222506,
    "name": "מקלט 22",
    "address": "הנרקיס 8",
    "city": "אור עקיבא",
    "type": "מקלט ציבורי",
    "source": "gov",
    "category": "public",
    "addressEn": "הנרקיס 8, אור עקיבא, ישראל"
  },
  {
    "id": "אור-עקיבא-21",
    "lat": 32.498532,
    "lon": 34.9235783,
    "name": "מקלט 23",
    "address": "היסמין 63",
    "city": "אור עקיבא",
    "type": "מקלט ציבורי",
    "source": "gov",
    "category": "public",
    "addressEn": "היסמין 63, אור עקיבא, ישראל"
  },
  {
    "id": "אור-עקיבא-22",
    "lat": 32.5207421,
    "lon": 34.9462432,
    "name": "מקלט 1",
    "address": "הנשיא פינת חיי טייב",
    "city": "אור עקיבא",
    "type": "מקלט ציבורי",
    "source": "gov",
    "category": "public",
    "addressEn": ""
  },
  {
    "id": "אור-עקיבא-23",
    "lat": 32.5207421,
    "lon": 34.9462432,
    "name": "מקלט 3",
    "address": "הנשיא פינת סטנלי מאיר 1",
    "city": "אור עקיבא",
    "type": "מקלט ציבורי",
    "source": "gov",
    "category": "public",
    "addressEn": ""
  }
]