[
  {
    "id": "rs_301",
    "lat": 32.1347481,
    "lon": 34.8609485,
    "name": "מקלט נהרדעא 24",
    "address": "נהרדעא 24, רמת השרון",
    "city": "רמת השרון",
    "capacity": null,
    "type": "bomb_shelter",
    "source": "gov",
    "category": "public",
    "addressEn": "Neharde'a St 24, Ramat Hasharon, Israel"
  },
  {
    "id": "rs_302",
    "lat": 32.1336514,
    "lon": 34.8618236,
    "name": "מקלט עזרא 54",
    "address": "עזרא 54, רמת השרון",
    "city": "רמת השרון",
    "capacity": null,
    "type": "bomb_shelter",
    "source": "gov",
    "category": "public",
    "addressEn": "Ezra St 54, Ramat Hasharon, Israel"
  },
  {
    "id": "rs_303",
    "lat": 32.13285560000001,
    "lon": 34.8601019,
    "name": "מקלט עזרא 22",
    "address": "עזרא 22, רמת השרון",
    "city": "רמת השרון",
    "capacity": null,
    "type": "bomb_shelter",
    "source": "gov",
    "category": "public",
    "addressEn": "Ezra St 22, Ramat Hasharon, Israel",
    "neighborhood": "מורשה"
  },
  {
    "id": "rs_304a",
    "lat": 32.137793,
    "lon": 34.840278,
    "name": "מקלט עוזיה",
    "address": "עוזיה, רמת השרון",
    "city": "רמת השרון",
    "capacity": null,
    "type": "bomb_shelter",
    "source": "gov",
    "category": "public",
    "addressEn": "BIG FASHION גלילות קומה 1, בניין C, Ramat Hasharon, Israel",
    "neighborhood": "מורשה"
  },
  {
    "id": "rs_304b",
    "lat": 32.137793,
    "lon": 34.840278,
    "name": "מקלט עוזיה",
    "address": "עוזיה, רמת השרון",
    "city": "רמת השרון",
    "capacity": null,
    "type": "bomb_shelter",
    "source": "gov",
    "category": "public",
    "addressEn": "BIG FASHION גלילות קומה 1, בניין C, Ramat Hasharon, Israel",
    "neighborhood": "מורשה"
  },
  {
    "id": "rs_304c",
    "lat": 32.137793,
    "lon": 34.840278,
    "name": "מקלט עוזיה",
    "address": "עוזיה, רמת השרון",
    "city": "רמת השרון",
    "capacity": null,
    "type": "bomb_shelter",
    "source": "gov",
    "category": "public",
    "addressEn": "BIG FASHION גלילות קומה 1, בניין C, Ramat Hasharon, Israel",
    "neighborhood": "מורשה"
  },
  {
    "id": "rs_306",
    "lat": 32.135552,
    "lon": 34.8558122,
    "name": "מקלט יהודה הנשיא 2",
    "address": "יהודה הנשיא 2, רמת השרון",
    "city": "רמת השרון",
    "capacity": null,
    "type": "bomb_shelter",
    "source": "gov",
    "category": "public",
    "addressEn": "Bet Hilel/Yehuda HaNassi, Ramat Hasharon, Israel"
  },
  {
    "id": "rs_308",
    "lat": 32.1309636,
    "lon": 34.8576501,
    "name": "מקלט בר כוכבא",
    "address": "בר כוכבא, רמת השרון",
    "city": "רמת השרון",
    "capacity": null,
    "type": "bomb_shelter",
    "source": "gov",
    "category": "public",
    "addressEn": "Bar Kochva St 2, Ramat Hasharon, Israel"
  },
  {
    "id": "rs_309",
    "lat": 32.1302507,
    "lon": 34.8574203,
    "name": "מקלט שמואל הנגיד 46",
    "address": "שמואל הנגיד 46, רמת השרון",
    "city": "רמת השרון",
    "capacity": null,
    "type": "bomb_shelter",
    "source": "gov",
    "category": "school",
    "addressEn": "Shmu'el HaNagid St 46, Ramat Hasharon, Israel"
  },
  {
    "id": "rs_310",
    "lat": 32.1339211,
    "lon": 34.8416504,
    "name": "מקלט שבטי ישראל 19",
    "address": "שבטי ישראל 19, רמת השרון",
    "city": "רמת השרון",
    "capacity": null,
    "type": "bomb_shelter",
    "source": "gov",
    "category": "public",
    "addressEn": "Shivtei Israel St 19, Ramat Hasharon, Israel",
    "neighborhood": "נווה רסקו"
  },
  {
    "id": "rs_312",
    "lat": 32.1336492,
    "lon": 34.8534154,
    "name": "מקלט רקפת 10",
    "address": "רקפת 10, רמת השרון",
    "city": "רמת השרון",
    "capacity": null,
    "type": "bomb_shelter",
    "source": "gov",
    "category": "public",
    "addressEn": "Rakefet St 32, Ramat Hasharon, Israel"
  },
  {
    "id": "rs_313",
    "lat": 32.1280337,
    "lon": 34.8548212,
    "name": "מקלט אילת 44",
    "address": "אילת 44, רמת השרון",
    "city": "רמת השרון",
    "capacity": null,
    "type": "bomb_shelter",
    "source": "gov",
    "category": "public",
    "addressEn": "Eilat St 38, Ramat Hasharon, Israel"
  },
  {
    "id": "rs_315",
    "lat": 32.1289887,
    "lon": 34.8530709,
    "name": "מקלט בית גוברין 7",
    "address": "בית גוברין 7, רמת השרון",
    "city": "רמת השרון",
    "capacity": null,
    "type": "bomb_shelter",
    "source": "gov",
    "category": "public",
    "addressEn": "Beit Guvrin St 7, Ramat Hasharon, Israel",
    "neighborhood": "מורשה"
  },
  {
    "id": "rs_317",
    "lat": 32.1296429,
    "lon": 34.8515858,
    "name": "מקלט לכיש 2",
    "address": "לכיש 2, רמת השרון",
    "city": "רמת השרון",
    "capacity": null,
    "type": "bomb_shelter",
    "source": "gov",
    "category": "public",
    "addressEn": "Lakhish St 2-8, Ramat Hasharon, Israel"
  },
  {
    "id": "rs_318",
    "lat": 32.1297826,
    "lon": 34.8490464,
    "name": "מקלט שבטי ישראל 80",
    "address": "שבטי ישראל 80, רמת השרון",
    "city": "רמת השרון",
    "capacity": null,
    "type": "bomb_shelter",
    "source": "gov",
    "category": "public",
    "addressEn": "Shivtei Israel St 80, Ramat Hasharon, Israel",
    "neighborhood": "מורשה"
  },
  {
    "id": "rs_319",
    "lat": 32.1299427,
    "lon": 34.8464338,
    "name": "מקלט הגפן 47",
    "address": "הגפן 47, רמת השרון",
    "city": "רמת השרון",
    "capacity": null,
    "type": "bomb_shelter",
    "source": "gov",
    "category": "public",
    "addressEn": "Ha-Gefen St 47, Ramat Hasharon, Israel"
  },
  {
    "id": "rs_320",
    "lat": 32.1284515,
    "lon": 34.8516541,
    "name": "מקלט בית גוברין 2",
    "address": "בית גוברין 2, רמת השרון",
    "city": "רמת השרון",
    "capacity": null,
    "type": "bomb_shelter",
    "source": "gov",
    "category": "public",
    "addressEn": "Beit Guvrin St 8, Ramat Hasharon, Israel"
  },
  {
    "id": "rs_321",
    "lat": 32.1312488,
    "lon": 34.8456873,
    "name": "מקלט התומר 57",
    "address": "התומר 57, רמת השרון",
    "city": "רמת השרון",
    "capacity": null,
    "type": "bomb_shelter",
    "source": "gov",
    "category": "public",
    "addressEn": "HaTomer St 42, Ramat Hasharon, Israel"
  },
  {
    "id": "rs_322",
    "lat": 32.1334804,
    "lon": 34.8466438,
    "name": "מקלט התומר 25",
    "address": "התומר 25, רמת השרון",
    "city": "רמת השרון",
    "capacity": null,
    "type": "bomb_shelter",
    "source": "gov",
    "category": "public",
    "addressEn": "HaTomer St 27, Ramat Hasharon, Israel"
  },
  {
    "id": "rs_323",
    "lat": 32.1303532,
    "lon": 34.8508018,
    "name": "מקלט בית השואבה",
    "address": "בית השואבה, רמת השרון",
    "city": "רמת השרון",
    "capacity": null,
    "type": "bomb_shelter",
    "source": "gov",
    "category": "school",
    "addressEn": "Beit ha-Sho'eva St 23, Ramat Hasharon, Israel",
    "neighborhood": "מורשה"
  },
  {
    "id": "rs_324",
    "lat": 32.1325874,
    "lon": 34.8499222,
    "name": "מקלט הרב קוק 25",
    "address": "הרב קוק 25, רמת השרון",
    "city": "רמת השרון",
    "capacity": null,
    "type": "bomb_shelter",
    "source": "gov",
    "category": "public",
    "addressEn": "HaRav Kuk St 25, Ramat Hasharon, Israel"
  },
  {
    "id": "rs_325",
    "lat": 32.1334427,
    "lon": 34.8443924,
    "name": "מקלט הזית 8",
    "address": "הזית 8, רמת השרון",
    "city": "רמת השרון",
    "capacity": null,
    "type": "bomb_shelter",
    "source": "gov",
    "category": "public",
    "addressEn": "HaZayit St 8, Ramat Hasharon, Israel"
  },
  {
    "id": "rs_326",
    "lat": 32.1330918,
    "lon": 34.8476469,
    "name": "מקלט תחכמוני 3",
    "address": "תחכמוני 3, רמת השרון",
    "city": "רמת השרון",
    "capacity": null,
    "type": "bomb_shelter",
    "source": "gov",
    "category": "public",
    "addressEn": "Takhkemoni St 326, Ramat Hasharon, Israel",
    "neighborhood": "נוה מגן"
  },
  {
    "id": "rs_327",
    "lat": 32.134971,
    "lon": 34.8471732,
    "name": "מקלט יצחק שדה 4",
    "address": "יצחק שדה 4, רמת השרון",
    "city": "רמת השרון",
    "capacity": null,
    "type": "bomb_shelter",
    "source": "gov",
    "category": "public",
    "addressEn": "Yitshak Sadeh St 4, Ramat Hasharon, 1111, Israel",
    "neighborhood": "נוה מגן"
  },
  {
    "id": "rs_328",
    "lat": 32.134971,
    "lon": 34.8471732,
    "name": "מקלט יצחק שדה 4",
    "address": "יצחק שדה 4, רמת השרון",
    "city": "רמת השרון",
    "capacity": null,
    "type": "bomb_shelter",
    "source": "gov",
    "category": "public",
    "addressEn": "Yitshak Sadeh St 4, Ramat Hasharon, 1111, Israel",
    "neighborhood": "נוה מגן"
  },
  {
    "id": "rs_329",
    "lat": 32.13459,
    "lon": 34.846368,
    "name": "מקלט המלכים 4",
    "address": "המלכים 4, רמת השרון",
    "city": "רמת השרון",
    "capacity": null,
    "type": "bomb_shelter",
    "source": "gov",
    "category": "public",
    "addressEn": "HaMelachim St 4, Ramat Hasharon, Israel"
  },
  {
    "id": "rs_330",
    "lat": 32.1332931,
    "lon": 34.8514203,
    "name": "מקלט ריינס 11",
    "address": "ריינס 11, רמת השרון",
    "city": "רמת השרון",
    "capacity": null,
    "type": "bomb_shelter",
    "source": "gov",
    "category": "public",
    "addressEn": "HaRav Reines St 11, Ramat Hasharon, Israel"
  },
  {
    "id": "rs_331",
    "lat": 32.1342409,
    "lon": 34.8509219,
    "name": "מקלט ריינס 17",
    "address": "ריינס 17, רמת השרון",
    "city": "רמת השרון",
    "capacity": null,
    "type": "bomb_shelter",
    "source": "gov",
    "category": "public",
    "addressEn": "HaRav Reines St 17, Ramat Hasharon, Israel"
  },
  {
    "id": "rs_332",
    "lat": 32.1369428,
    "lon": 34.8499566,
    "name": "מקלט רמז 8",
    "address": "רמז 8, רמת השרון",
    "city": "רמת השרון",
    "capacity": null,
    "type": "bomb_shelter",
    "source": "gov",
    "category": "school",
    "addressEn": "Remez St 8, Ramat Hasharon, Israel",
    "neighborhood": "נוה מגן"
  },
  {
    "id": "rs_333",
    "lat": 32.1339004,
    "lon": 34.8437112,
    "name": "מקלט החרוב 19",
    "address": "החרוב 19, רמת השרון",
    "city": "רמת השרון",
    "capacity": null,
    "type": "bomb_shelter",
    "source": "gov",
    "category": "school",
    "addressEn": "Ha-Kharuv St 13, Ramat Hasharon, Israel",
    "neighborhood": "נוה מגן"
  },
  {
    "id": "rs_334",
    "lat": 32.1339004,
    "lon": 34.8437112,
    "name": "מקלט החרוב 19",
    "address": "החרוב 19, רמת השרון",
    "city": "רמת השרון",
    "capacity": null,
    "type": "bomb_shelter",
    "source": "gov",
    "category": "school",
    "addressEn": "Ha-Kharuv St 13, Ramat Hasharon, Israel",
    "neighborhood": "נוה מגן"
  },
  {
    "id": "rs_335",
    "lat": 32.1339004,
    "lon": 34.8437112,
    "name": "מקלט החרוב 19",
    "address": "החרוב 19, רמת השרון",
    "city": "רמת השרון",
    "capacity": null,
    "type": "bomb_shelter",
    "source": "gov",
    "category": "public",
    "addressEn": "Ha-Kharuv St 13, Ramat Hasharon, Israel",
    "neighborhood": "נוה מגן"
  },
  {
    "id": "rs_336",
    "lat": 32.1332689,
    "lon": 34.8412168,
    "name": "מקלט יהושע טהון 5",
    "address": "יהושע טהון 5, רמת השרון",
    "city": "רמת השרון",
    "capacity": null,
    "type": "bomb_shelter",
    "source": "gov",
    "category": "school",
    "addressEn": "Yehoshua Tahon St 5, Ramat Hasharon, Israel",
    "neighborhood": "נוה מגן"
  },
  {
    "id": "rs_337",
    "lat": 32.1332689,
    "lon": 34.8412168,
    "name": "מקלט יהושע טהון 5",
    "address": "יהושע טהון 5, רמת השרון",
    "city": "רמת השרון",
    "capacity": null,
    "type": "bomb_shelter",
    "source": "gov",
    "category": "school",
    "addressEn": "Yehoshua Tahon St 5, Ramat Hasharon, Israel",
    "neighborhood": "נוה מגן"
  },
  {
    "id": "rs_338",
    "lat": 32.1332689,
    "lon": 34.8412168,
    "name": "מקלט יהושע טהון 5",
    "address": "יהושע טהון 5, רמת השרון",
    "city": "רמת השרון",
    "capacity": null,
    "type": "bomb_shelter",
    "source": "gov",
    "category": "public",
    "addressEn": "Yehoshua Tahon St 5, Ramat Hasharon, Israel"
  },
  {
    "id": "rs_339",
    "lat": 32.1325204,
    "lon": 34.8399357,
    "name": "מקלט הדקל 18",
    "address": "הדקל 18, רמת השרון",
    "city": "רמת השרון",
    "capacity": null,
    "type": "bomb_shelter",
    "source": "gov",
    "category": "public",
    "addressEn": "Nordau St 5, Ramat Hasharon, Israel"
  },
  {
    "id": "rs_340",
    "lat": 32.1354213,
    "lon": 34.83849540000001,
    "name": "מקלט תרפ\"ד 45",
    "address": "תרפ\"ד 45, רמת השרון",
    "city": "רמת השרון",
    "capacity": null,
    "type": "bomb_shelter",
    "source": "gov",
    "category": "school",
    "addressEn": "Tarpad St 45, Ramat Hasharon, Israel",
    "neighborhood": "נווה רסקו"
  },
  {
    "id": "rs_341",
    "lat": 32.137793,
    "lon": 34.840278,
    "name": "מקלט ורד",
    "address": "ורד, רמת השרון",
    "city": "רמת השרון",
    "capacity": null,
    "type": "bomb_shelter",
    "source": "gov",
    "category": "public",
    "addressEn": "BIG FASHION גלילות קומה 1, בניין C, Ramat Hasharon, Israel",
    "neighborhood": "נווה רסקו"
  },
  {
    "id": "rs_342",
    "lat": 32.1363247,
    "lon": 34.8387085,
    "name": "מקלט חצב",
    "address": "חצב, רמת השרון",
    "city": "רמת השרון",
    "capacity": null,
    "type": "bomb_shelter",
    "source": "gov",
    "category": "public",
    "addressEn": "Ha-Meyasdim St 18, Ramat Hasharon, Israel",
    "neighborhood": "נווה רסקו"
  },
  {
    "id": "rs_343",
    "lat": 32.1356799,
    "lon": 34.8399362,
    "name": "מקלט צלף",
    "address": "צלף, רמת השרון",
    "city": "רמת השרון",
    "capacity": null,
    "type": "bomb_shelter",
    "source": "gov",
    "category": "public",
    "addressEn": "Tsalaf St 6, Ramat Hasharon, Israel",
    "neighborhood": "נווה רסקו"
  },
  {
    "id": "rs_344",
    "lat": 32.1358101,
    "lon": 34.8409872,
    "name": "מקלט המאבק 9",
    "address": "המאבק 9, רמת השרון",
    "city": "רמת השרון",
    "capacity": null,
    "type": "bomb_shelter",
    "source": "gov",
    "category": "public",
    "addressEn": "HaMa'avak St 9, Ramat Hasharon, Israel",
    "neighborhood": "נווה רסקו"
  },
  {
    "id": "rs_345",
    "lat": 32.1367906,
    "lon": 34.8390357,
    "name": "מקלט דליה 11",
    "address": "דליה 11, רמת השרון",
    "city": "רמת השרון",
    "capacity": null,
    "type": "bomb_shelter",
    "source": "gov",
    "category": "public",
    "addressEn": "Dalya St 10, Ramat Hasharon, Israel",
    "neighborhood": "נווה רסקו"
  },
  {
    "id": "rs_346",
    "lat": 32.136656,
    "lon": 34.8399363,
    "name": "מקלט דליה 23",
    "address": "דליה 23, רמת השרון",
    "city": "רמת השרון",
    "capacity": null,
    "type": "bomb_shelter",
    "source": "gov",
    "category": "public",
    "addressEn": "Dalya St 25, Ramat Hasharon, Israel",
    "neighborhood": "נווה רסקו"
  },
  {
    "id": "rs_347",
    "lat": 32.1368221,
    "lon": 34.8375994,
    "name": "מקלט סמדר",
    "address": "סמדר, רמת השרון",
    "city": "רמת השרון",
    "capacity": null,
    "type": "bomb_shelter",
    "source": "gov",
    "category": "public",
    "addressEn": "Ha-Meyasdim St 7, Ramat Hasharon, Israel",
    "neighborhood": "נווה רסקו"
  },
  {
    "id": "rs_348",
    "lat": 32.137793,
    "lon": 34.840278,
    "name": "מקלט הטלים",
    "address": "הטלים, רמת השרון",
    "city": "רמת השרון",
    "capacity": null,
    "type": "bomb_shelter",
    "source": "gov",
    "category": "public",
    "addressEn": "BIG FASHION גלילות קומה 1, בניין C, Ramat Hasharon, Israel",
    "neighborhood": "הכפר הירוק"
  },
  {
    "id": "rs_349",
    "lat": 32.1391002,
    "lon": 34.8407654,
    "name": "מקלט אוסישקין 7",
    "address": "אוסישקין 7, רמת השרון",
    "city": "רמת השרון",
    "capacity": null,
    "type": "bomb_shelter",
    "source": "gov",
    "category": "public",
    "addressEn": "Ussishkin St 7, Ramat Hasharon, Israel",
    "neighborhood": "הדר"
  },
  {
    "id": "rs_351",
    "lat": 32.1447614,
    "lon": 34.8441062,
    "name": "מקלט אוסישקין 65",
    "address": "אוסישקין 65, רמת השרון",
    "city": "רמת השרון",
    "capacity": null,
    "type": "bomb_shelter",
    "source": "gov",
    "category": "public",
    "addressEn": "Ussishkin St 65, Ramat Hasharon, Israel",
    "neighborhood": "הדר"
  },
  {
    "id": "rs_352",
    "lat": 32.1447614,
    "lon": 34.8441062,
    "name": "מקלט אוסישקין 65",
    "address": "אוסישקין 65, רמת השרון",
    "city": "רמת השרון",
    "capacity": null,
    "type": "bomb_shelter",
    "source": "gov",
    "category": "public",
    "addressEn": "Ussishkin St 65, Ramat Hasharon, Israel",
    "neighborhood": "הדר"
  },
  {
    "id": "rs_354",
    "lat": 32.148041,
    "lon": 34.847391,
    "name": "מקלט ארנון 17",
    "address": "ארנון 17, רמת השרון",
    "city": "רמת השרון",
    "capacity": null,
    "type": "bomb_shelter",
    "source": "gov",
    "category": "public",
    "addressEn": "Arnon St 17, Ramat Hasharon, Israel",
    "neighborhood": "גולן"
  },
  {
    "id": "rs_355",
    "lat": 32.1441328,
    "lon": 34.8328499,
    "name": "מקלט הבנים 46",
    "address": "הבנים 46, רמת השרון",
    "city": "רמת השרון",
    "capacity": null,
    "type": "bomb_shelter",
    "source": "gov",
    "category": "school",
    "addressEn": "HaBanim St 46, Ramat Hasharon, Israel",
    "neighborhood": "גולן"
  },
  {
    "id": "rs_356",
    "lat": 32.1509228,
    "lon": 34.838086,
    "name": "מקלט המרי 8",
    "address": "המרי 8, רמת השרון",
    "city": "רמת השרון",
    "capacity": null,
    "type": "bomb_shelter",
    "source": "gov",
    "category": "public",
    "addressEn": "Ha-Meri St 356, Ramat Hasharon, Israel",
    "neighborhood": "גולן"
  },
  {
    "id": "rs_357",
    "lat": 32.1441328,
    "lon": 34.8328499,
    "name": "מקלט הבנים 46",
    "address": "הבנים 46, רמת השרון",
    "city": "רמת השרון",
    "capacity": null,
    "type": "bomb_shelter",
    "source": "gov",
    "category": "school",
    "addressEn": "HaBanim St 46, Ramat Hasharon, Israel",
    "neighborhood": "גולן"
  },
  {
    "id": "rs_358",
    "lat": 32.147097,
    "lon": 34.8410488,
    "name": "מקלט המחתרת 2",
    "address": "המחתרת 2, רמת השרון",
    "city": "רמת השרון",
    "capacity": null,
    "type": "bomb_shelter",
    "source": "gov",
    "category": "public",
    "addressEn": "Ha-Hagana St 10, Ramat Hasharon, Israel",
    "neighborhood": "אלון"
  },
  {
    "id": "rs_360",
    "lat": 32.14931680000001,
    "lon": 34.8306337,
    "name": "מקלט אשל אברהם 3",
    "address": "אשל אברהם 3, רמת השרון",
    "city": "רמת השרון",
    "capacity": null,
    "type": "bomb_shelter",
    "source": "gov",
    "category": "public",
    "addressEn": "Eshel Avraham St 10, Ramat Hasharon, Israel",
    "neighborhood": "קרית יערים"
  },
  {
    "id": "rs_361",
    "lat": 32.1483861,
    "lon": 34.830316,
    "name": "מקלט ז' בחשוון 8",
    "address": "ז' בחשוון 8, רמת השרון",
    "city": "רמת השרון",
    "capacity": null,
    "type": "bomb_shelter",
    "source": "gov",
    "category": "public",
    "addressEn": "Yitskhak Elkhanan St 3, Ramat Hasharon, Israel",
    "neighborhood": "קרית יערים"
  },
  {
    "id": "rs_362",
    "lat": 32.1510914,
    "lon": 34.8309035,
    "name": "מקלט קהילת וילנא",
    "address": "קהילת וילנא, רמת השרון",
    "city": "רמת השרון",
    "capacity": null,
    "type": "bomb_shelter",
    "source": "gov",
    "category": "public",
    "addressEn": "Kehilat Vilna St 32, Ramat Hasharon, Israel",
    "neighborhood": "קרית יערים"
  },
  {
    "id": "rs_363",
    "lat": 32.1431413,
    "lon": 34.8269505,
    "name": "מקלט השחף 5",
    "address": "השחף 5, רמת השרון",
    "city": "רמת השרון",
    "capacity": null,
    "type": "bomb_shelter",
    "source": "gov",
    "category": "public",
    "addressEn": "HaZamir St 1, Ramat Hasharon, Israel",
    "neighborhood": "נוה רום"
  },
  {
    "id": "rs_364",
    "lat": 32.1420793,
    "lon": 34.827337,
    "name": "מקלט היסעור 8",
    "address": "היסעור 8, רמת השרון",
    "city": "רמת השרון",
    "capacity": null,
    "type": "bomb_shelter",
    "source": "gov",
    "category": "public",
    "addressEn": "Ha-Yas'ur St 6, Ramat Hasharon, Israel",
    "neighborhood": "נוה רום"
  },
  {
    "id": "rs_365",
    "lat": 32.1411652,
    "lon": 34.8273538,
    "name": "מקלט חוחית 19",
    "address": "חוחית 19, רמת השרון",
    "city": "רמת השרון",
    "capacity": null,
    "type": "bomb_shelter",
    "source": "gov",
    "category": "public",
    "addressEn": "Hohit St 19, Ramat Hasharon, Israel",
    "neighborhood": "נוה רום"
  },
  {
    "id": "rs_366",
    "lat": 32.140273,
    "lon": 34.828521,
    "name": "מקלט הזרזיר 4",
    "address": "הזרזיר 4, רמת השרון",
    "city": "רמת השרון",
    "capacity": null,
    "type": "bomb_shelter",
    "source": "gov",
    "category": "public",
    "addressEn": "Ankor St 28, Ramat Hasharon, Israel",
    "neighborhood": "נוה רום"
  },
  {
    "id": "rs_367",
    "lat": 32.1408602,
    "lon": 34.8254192,
    "name": "מקלט סנונית 3",
    "address": "סנונית 3, רמת השרון",
    "city": "רמת השרון",
    "capacity": null,
    "type": "bomb_shelter",
    "source": "gov",
    "category": "public",
    "addressEn": "Anafa Garden, Snunit St 3, Ramat Hasharon, Israel",
    "neighborhood": "נוה רום"
  },
  {
    "id": "rs_368",
    "lat": 32.1320129,
    "lon": 34.8442146,
    "name": "מקלט שבטי ישראל 42",
    "address": "שבטי ישראל 42, רמת השרון",
    "city": "רמת השרון",
    "capacity": null,
    "type": "bomb_shelter",
    "source": "gov",
    "category": "public",
    "addressEn": "Shivtei Israel St 42, Ramat Hasharon, Israel",
    "neighborhood": "נוה מגן"
  },
  {
    "id": "rs_369",
    "lat": 32.1500253,
    "lon": 34.8308137,
    "name": "מקלט יצחק אלחנן 13",
    "address": "יצחק אלחנן 13, רמת השרון",
    "city": "רמת השרון",
    "capacity": null,
    "type": "bomb_shelter",
    "source": "gov",
    "category": "school",
    "addressEn": "Yitskhak Elkhanan St 13, Ramat Hasharon, Israel",
    "neighborhood": "קרית יערים"
  },
  {
    "id": "rs_370",
    "lat": 32.1399139,
    "lon": 34.8411631,
    "name": "מקלט סולד 27",
    "address": "סולד 27, רמת השרון",
    "city": "רמת השרון",
    "capacity": null,
    "type": "bomb_shelter",
    "source": "gov",
    "category": "school",
    "addressEn": "Henrietta Szold St 27, Ramat Hasharon, Israel",
    "neighborhood": "הדר"
  },
  {
    "id": "rs_371",
    "lat": 32.1370771,
    "lon": 34.8511217,
    "name": "מקלט ארלוזורוב 20",
    "address": "ארלוזורוב 20, רמת השרון",
    "city": "רמת השרון",
    "capacity": null,
    "type": "bomb_shelter",
    "source": "gov",
    "category": "public",
    "addressEn": "Arlozorov St 20, Ramat Hasharon, Israel",
    "neighborhood": "מורשה"
  },
  {
    "id": "rs_372",
    "lat": 32.1325466,
    "lon": 34.8509767,
    "name": "מקלט השח\"ל 34",
    "address": "השח\"ל 34, רמת השרון",
    "city": "רמת השרון",
    "capacity": null,
    "type": "bomb_shelter",
    "source": "gov",
    "category": "public",
    "addressEn": "Shakhal St 34, Ramat Hasharon, Israel",
    "neighborhood": "מורשה"
  },
  {
    "id": "rs_373",
    "lat": 32.1355823,
    "lon": 34.8528669,
    "name": "מקלט בית הלל 8",
    "address": "בית הלל 8, רמת השרון",
    "city": "רמת השרון",
    "capacity": null,
    "type": "bomb_shelter",
    "source": "gov",
    "category": "public",
    "addressEn": "Beit Hilel St 8, Ramat Hasharon, Israel",
    "neighborhood": "מורשה"
  },
  {
    "id": "rs_374",
    "lat": 32.1272205,
    "lon": 34.8521726,
    "name": "מקלט הגפן 170",
    "address": "הגפן 170, רמת השרון",
    "city": "רמת השרון",
    "capacity": null,
    "type": "bomb_shelter",
    "source": "gov",
    "category": "public",
    "addressEn": "Ha-Gefen St 172, Ramat Hasharon, Israel",
    "neighborhood": "מורשה"
  },
  {
    "id": "rs_375",
    "lat": 32.1311202,
    "lon": 34.8416888,
    "name": "מקלט הזית 56",
    "address": "הזית 56, רמת השרון",
    "city": "רמת השרון",
    "capacity": null,
    "type": "bomb_shelter",
    "source": "gov",
    "category": "public",
    "addressEn": "HaZayit St 56, Ramat Hasharon, Israel",
    "neighborhood": "נוה מגן"
  },
  {
    "id": "rs_376",
    "lat": 32.1500849,
    "lon": 34.8341519,
    "name": "מקלט למרחב 31",
    "address": "למרחב 31, רמת השרון",
    "city": "רמת השרון",
    "capacity": null,
    "type": "bomb_shelter",
    "source": "gov",
    "category": "public",
    "addressEn": "La-Merkhav St 31, Ramat Hasharon, Israel",
    "neighborhood": "גולן"
  },
  {
    "id": "rs_377",
    "lat": 32.1313025,
    "lon": 34.8453501,
    "name": "מקלט שבטי ישראל",
    "address": "שבטי ישראל, רמת השרון",
    "city": "רמת השרון",
    "capacity": null,
    "type": "bomb_shelter",
    "source": "gov",
    "category": "public",
    "addressEn": "Shivtei Israel St 47, Ramat Hasharon, Israel",
    "neighborhood": "נוה מגן"
  },
  {
    "id": "rs_379",
    "lat": 32.1655126,
    "lon": 34.8369009,
    "name": "מקלט ויצמן 20",
    "address": "ויצמן 20, רמת השרון",
    "city": "רמת השרון",
    "capacity": null,
    "type": "bomb_shelter",
    "source": "gov",
    "category": "public",
    "addressEn": "Weizman St 20, Herzliya, Israel",
    "neighborhood": "קרית יערים"
  },
  {
    "id": "rs_380a",
    "lat": 32.129513,
    "lon": 34.855619,
    "name": "מקלט הנביאים",
    "address": "הנביאים, רמת השרון",
    "city": "רמת השרון",
    "capacity": null,
    "type": "bomb_shelter",
    "source": "gov",
    "category": "public",
    "addressEn": "HaNevi'im St 41, Ramat Hasharon, Israel",
    "neighborhood": "מורשה"
  },
  {
    "id": "rs_380b",
    "lat": 32.129513,
    "lon": 34.855619,
    "name": "מקלט הנביאים",
    "address": "הנביאים, רמת השרון",
    "city": "רמת השרון",
    "capacity": null,
    "type": "bomb_shelter",
    "source": "gov",
    "category": "public",
    "addressEn": "HaNevi'im St 41, Ramat Hasharon, Israel",
    "neighborhood": "מורשה"
  },
  {
    "id": "rs_384",
    "lat": 32.1302326,
    "lon": 34.8524116,
    "name": "מקלט קריית הצעירים",
    "address": "קריית הצעירים, רמת השרון",
    "city": "רמת השרון",
    "capacity": null,
    "type": "bomb_shelter",
    "source": "gov",
    "category": "public",
    "addressEn": "רחוב שבטי ישראל פינת, Beit ha-Sho'eva St, Ramat HaSharon, Israel"
  },
  {
    "id": "rs_386",
    "lat": 32.132397,
    "lon": 34.854592,
    "name": "מקלט יהודה הנשיא 61",
    "address": "יהודה הנשיא 61, רמת השרון",
    "city": "רמת השרון",
    "capacity": null,
    "type": "bomb_shelter",
    "source": "gov",
    "category": "public",
    "addressEn": "Yehuda ha-Nasi St 59, Ramat Hasharon, Israel",
    "neighborhood": "מורשה"
  },
  {
    "id": "rs_387",
    "lat": 32.1334178,
    "lon": 34.8470203,
    "name": "מקלט התומר 20",
    "address": "התומר 20, רמת השרון",
    "city": "רמת השרון",
    "capacity": null,
    "type": "bomb_shelter",
    "source": "gov",
    "category": "public",
    "addressEn": "HaTomer St 20, Ramat Hasharon, Israel",
    "neighborhood": "נוה מגן"
  },
  {
    "id": "rs_390",
    "lat": 32.1285999,
    "lon": 34.8534584,
    "name": "מקלט אילת 8",
    "address": "אילת 8, רמת השרון",
    "city": "רמת השרון",
    "capacity": null,
    "type": "bomb_shelter",
    "source": "gov",
    "category": "public",
    "addressEn": "Eilat St 3, Ramat Hasharon, Israel",
    "neighborhood": "מורשה"
  },
  {
    "id": "rs_391",
    "lat": 32.1350744,
    "lon": 34.8519902,
    "name": "מקלט בית הלל 2",
    "address": "בית הלל 2, רמת השרון",
    "city": "רמת השרון",
    "capacity": null,
    "type": "bomb_shelter",
    "source": "gov",
    "category": "public",
    "addressEn": "HaMelachim St 83, Ramat Hasharon, Israel",
    "neighborhood": "מורשה"
  },
  {
    "id": "rs_392",
    "lat": 32.1353004,
    "lon": 34.8601011,
    "name": "מקלט שבי ציון 18",
    "address": "שבי ציון 18, רמת השרון",
    "city": "רמת השרון",
    "capacity": null,
    "type": "bomb_shelter",
    "source": "gov",
    "category": "public",
    "addressEn": "Shavei Zion St 35, Ramat Hasharon, Israel",
    "neighborhood": "מורשה"
  },
  {
    "id": "rs_393",
    "lat": 32.1261733,
    "lon": 34.8536014,
    "name": "מקלט הנביאים 100",
    "address": "הנביאים 100, רמת השרון",
    "city": "רמת השרון",
    "capacity": null,
    "type": "bomb_shelter",
    "source": "gov",
    "category": "public",
    "addressEn": "HaNevi'im St 100, Ramat Hasharon, Israel",
    "neighborhood": "מורשה"
  },
  {
    "id": "rs_395",
    "lat": 32.1406928,
    "lon": 34.8449736,
    "name": "מקלט השופטים 32",
    "address": "השופטים 32, רמת השרון",
    "city": "רמת השרון",
    "capacity": null,
    "type": "bomb_shelter",
    "source": "gov",
    "category": "school",
    "addressEn": "HaShoftim St 32, Ramat Hasharon, Israel",
    "neighborhood": "הדר"
  },
  {
    "id": "rs_396",
    "lat": 32.1439655,
    "lon": 34.8379397,
    "name": "מקלט סוקולוב 52",
    "address": "סוקולוב 52, רמת השרון",
    "city": "רמת השרון",
    "capacity": null,
    "type": "bomb_shelter",
    "source": "gov",
    "category": "public",
    "addressEn": "Sokolov St 52, Ramat Hasharon, Israel",
    "neighborhood": "גולן"
  },
  {
    "id": "rs_397",
    "lat": 32.1342856,
    "lon": 34.8511184,
    "name": "מקלט ריינס",
    "address": "ריינס, רמת השרון",
    "city": "רמת השרון",
    "capacity": null,
    "type": "bomb_shelter",
    "source": "gov",
    "category": "public",
    "addressEn": "HaRav Reines St 18, Ramat Hasharon, Israel",
    "neighborhood": "מורשה"
  },
  {
    "id": "rs_398",
    "lat": 32.148976,
    "lon": 34.8449635,
    "name": "מקלט אוסישקין 101",
    "address": "אוסישקין 101, רמת השרון",
    "city": "רמת השרון",
    "capacity": null,
    "type": "bomb_shelter",
    "source": "gov",
    "category": "school",
    "addressEn": "Ussishkin St 101, Ramat Hasharon, Israel",
    "neighborhood": "אלון"
  },
  {
    "id": "rs_399",
    "lat": 32.148976,
    "lon": 34.8449635,
    "name": "מקלט אוסישקין 101",
    "address": "אוסישקין 101, רמת השרון",
    "city": "רמת השרון",
    "capacity": null,
    "type": "bomb_shelter",
    "source": "gov",
    "category": "school",
    "addressEn": "Ussishkin St 101, Ramat Hasharon, Israel",
    "neighborhood": "אלון"
  },
  {
    "id": "rs_401",
    "lat": 32.1388263,
    "lon": 34.8454128,
    "name": "מקלט פארק הנצח",
    "address": "פארק הנצח, רמת השרון",
    "city": "רמת השרון",
    "capacity": null,
    "type": "bomb_shelter",
    "source": "gov",
    "category": "public",
    "addressEn": "Ehud St 18, Ramat Hasharon, Israel"
  },
  {
    "id": "rs_402",
    "lat": 32.1388263,
    "lon": 34.8454128,
    "name": "מקלט פארק הנצח",
    "address": "פארק הנצח, רמת השרון",
    "city": "רמת השרון",
    "capacity": null,
    "type": "bomb_shelter",
    "source": "gov",
    "category": "public",
    "addressEn": "Ehud St 18, Ramat Hasharon, Israel"
  },
  {
    "id": "rs_403",
    "lat": 32.142947,
    "lon": 34.841696,
    "name": "מקלט גינת הקוצר",
    "address": "גינת הקוצר, רמת השרון",
    "city": "רמת השרון",
    "capacity": null,
    "type": "bomb_shelter",
    "source": "gov",
    "category": "public",
    "addressEn": "HaKotser St 7, Ramat Hasharon, Israel"
  },
  {
    "id": "rs_404",
    "lat": 32.137793,
    "lon": 34.840278,
    "name": "מקלט גינת החבלים",
    "address": "גינת החבלים, רמת השרון",
    "city": "רמת השרון",
    "capacity": null,
    "type": "bomb_shelter",
    "source": "gov",
    "category": "public",
    "addressEn": "BIG FASHION גלילות קומה 1, בניין C, Ramat Hasharon, Israel",
    "neighborhood": "נווה גן"
  },
  {
    "id": "rs_405",
    "lat": 32.129457,
    "lon": 34.8626099,
    "name": "מקלט דרך דודו דותן",
    "address": "דרך דודו דותן, רמת השרון",
    "city": "רמת השרון",
    "capacity": null,
    "type": "bomb_shelter",
    "source": "gov",
    "category": "public",
    "addressEn": "Khativat Alexandroni St 11, Ramat Hasharon, Israel"
  },
  {
    "id": "rs_406",
    "lat": 32.1438211,
    "lon": 34.8314813,
    "name": "מקלט הנוער 1",
    "address": "הנוער 1, רמת השרון",
    "city": "רמת השרון",
    "capacity": null,
    "type": "bomb_shelter",
    "source": "gov",
    "category": "public",
    "addressEn": "Ha-No'ar St 1, Ramat Hasharon, Israel"
  },
  {
    "id": "rs_407",
    "lat": 32.133653,
    "lon": 34.843605,
    "name": "מקלט החרוב",
    "address": "החרוב, רמת השרון",
    "city": "רמת השרון",
    "capacity": null,
    "type": "bomb_shelter",
    "source": "gov",
    "category": "public",
    "addressEn": "Ha-Kharuv St 13, Ramat Hasharon, Israel"
  },
  {
    "id": "rs_408",
    "lat": 32.1688027,
    "lon": 34.8486989,
    "name": "מקלט יגאל אלון",
    "address": "יגאל אלון, רמת השרון",
    "city": "רמת השרון",
    "capacity": null,
    "type": "bomb_shelter",
    "source": "gov",
    "category": "public",
    "addressEn": "Hadar St 10, Herzliya, Israel"
  },
  {
    "id": "rs_409",
    "lat": 32.1381656,
    "lon": 34.8388453,
    "name": "מקלט העבודה 4",
    "address": "העבודה 4, רמת השרון",
    "city": "רמת השרון",
    "capacity": null,
    "type": "bomb_shelter",
    "source": "gov",
    "category": "public",
    "addressEn": "Ha-Avoda St 4, Ramat Hasharon, Israel"
  },
  {
    "id": "rs_410",
    "lat": 32.149538,
    "lon": 34.842415,
    "name": "מקלט הטבק 16",
    "address": "הטבק 16, רמת השרון",
    "city": "רמת השרון",
    "capacity": null,
    "type": "bomb_shelter",
    "source": "gov",
    "category": "public",
    "addressEn": "HaTabak St 16, Ramat Hasharon, Israel"
  },
  {
    "id": "rs_411",
    "lat": 32.137793,
    "lon": 34.840278,
    "name": "מקלט ביאליק 41",
    "address": "ביאליק 41, רמת השרון",
    "city": "רמת השרון",
    "capacity": null,
    "type": "bomb_shelter",
    "source": "gov",
    "category": "parking",
    "addressEn": "BIG FASHION גלילות קומה 1, בניין C, Ramat Hasharon, Israel"
  },
  {
    "id": "rs_412",
    "lat": 32.1474169,
    "lon": 34.8344177,
    "name": "מקלט ויצמן 28",
    "address": "ויצמן 28, רמת השרון",
    "city": "רמת השרון",
    "capacity": null,
    "type": "bomb_shelter",
    "source": "gov",
    "category": "public",
    "addressEn": "Sderot Weizman 28, Ramat HaSharon, 4721126, Israel"
  },
  {
    "id": "rs_413",
    "lat": 32.1483023,
    "lon": 34.8284076,
    "name": "מקלט ז'בוטינסקי 57",
    "address": "ז'בוטינסקי 57, רמת השרון",
    "city": "רמת השרון",
    "capacity": null,
    "type": "bomb_shelter",
    "source": "gov",
    "category": "public",
    "addressEn": "Jabotinski St 57, Ramat Hasharon, Israel"
  },
  {
    "id": "rs_416",
    "lat": 32.132859,
    "lon": 34.862857,
    "name": "מקלט שבי ציון 103",
    "address": "שבי ציון 103, רמת השרון",
    "city": "רמת השרון",
    "capacity": null,
    "type": "bomb_shelter",
    "source": "gov",
    "category": "public",
    "addressEn": "Shavei Zion St 103, Ramat Hasharon, Israel",
    "neighborhood": "עילי"
  },
  {
    "id": "rs_417",
    "lat": 32.136394,
    "lon": 34.84231,
    "name": "מקלט שבטי ישראל 102",
    "address": "שבטי ישראל 102, רמת השרון",
    "city": "רמת השרון",
    "capacity": null,
    "type": "bomb_shelter",
    "source": "gov",
    "category": "public",
    "addressEn": "Shivtei Israel St 102, Ramat Hasharon, Israel",
    "neighborhood": "עילי"
  },
  {
    "id": "rs_418",
    "lat": 32.1447694,
    "lon": 34.8370932,
    "name": "מקלט מוריה 28",
    "address": "מוריה 28, רמת השרון",
    "city": "רמת השרון",
    "capacity": null,
    "type": "bomb_shelter",
    "source": "gov",
    "category": "public",
    "addressEn": "Moriya St 28, Ramat Hasharon, Israel",
    "neighborhood": "עילי"
  },
  {
    "id": "rs_419",
    "lat": 32.1595512,
    "lon": 34.8424081,
    "name": "מקלט בן גוריון",
    "address": "בן גוריון, רמת השרון",
    "city": "רמת השרון",
    "capacity": null,
    "type": "bomb_shelter",
    "source": "gov",
    "category": "public",
    "addressEn": "Ben Gurion Blvd 42, Herzliya, Israel",
    "neighborhood": "עילי"
  },
  {
    "id": "rs_420",
    "lat": 32.1272467,
    "lon": 34.8562869,
    "name": "מקלט הנביאים 53",
    "address": "הנביאים 53, רמת השרון",
    "city": "רמת השרון",
    "capacity": null,
    "type": "bomb_shelter",
    "source": "gov",
    "category": "public",
    "addressEn": "HaNevi'im St 53, Ramat Hasharon, Israel",
    "neighborhood": "עילי"
  },
  {
    "id": "rs_421",
    "lat": 32.1392677,
    "lon": 34.8281812,
    "name": "מקלט השרף",
    "address": "השרף, רמת השרון",
    "city": "רמת השרון",
    "capacity": null,
    "type": "bomb_shelter",
    "source": "gov",
    "category": "public",
    "addressEn": "Ha-Saraf St 3, Ramat Hasharon, Israel",
    "neighborhood": "עילי"
  },
  {
    "id": "rs_422",
    "lat": 32.1349879,
    "lon": 34.8535235,
    "name": "מקלט חשמונאים",
    "address": "חשמונאים, רמת השרון",
    "city": "רמת השרון",
    "capacity": null,
    "type": "bomb_shelter",
    "source": "gov",
    "category": "public",
    "addressEn": "Ha-Khashmona'im St 14, Ramat Hasharon, 4729261, Israel",
    "neighborhood": "עילי"
  },
  {
    "id": "rs_423",
    "lat": 32.1349879,
    "lon": 34.8535235,
    "name": "מקלט חשמונאים",
    "address": "חשמונאים, רמת השרון",
    "city": "רמת השרון",
    "capacity": null,
    "type": "bomb_shelter",
    "source": "gov",
    "category": "public",
    "addressEn": "Ha-Khashmona'im St 14, Ramat Hasharon, 4729261, Israel",
    "neighborhood": "עילי"
  },
  {
    "id": "rs_425",
    "lat": 32.1392677,
    "lon": 34.8281812,
    "name": "מקלט השרף",
    "address": "השרף, רמת השרון",
    "city": "רמת השרון",
    "capacity": null,
    "type": "bomb_shelter",
    "source": "gov",
    "category": "public",
    "addressEn": "Ha-Saraf St 3, Ramat Hasharon, Israel",
    "neighborhood": "עילי"
  },
  {
    "id": "rs_yael",
    "lat": 32.1387992,
    "lon": 34.8386903,
    "name": "מקלט העבודה 13",
    "address": "העבודה 13, רמת השרון",
    "city": "רמת השרון",
    "capacity": null,
    "type": "bomb_shelter",
    "source": "gov",
    "category": "school",
    "addressEn": "Ha-Avoda St 9, Ramat Hasharon, Israel"
  }
]