[
  {
    "id": "roshhaayin_2",
    "lat": 32.09924114972291,
    "lon": 34.96662772343269,
    "name": "מקלט - כלנית  7 (גבעת טל)",
    "address": "כלנית  7",
    "city": "ראש העין",
    "capacity": "60 אנשים",
    "type": "מקלט ציבורי עילי",
    "source": "gov",
    "category": "public"
  },
  {
    "id": "roshhaayin_4",
    "lat": 32.098344324434585,
    "lon": 34.96897319677477,
    "name": "מקלט - עירית  17 (גבעת טל)",
    "address": "עירית  17",
    "city": "ראש העין",
    "capacity": "60 אנשים",
    "type": "מקלט ציבורי עילי",
    "source": "gov",
    "category": "public"
  },
  {
    "id": "roshhaayin_3",
    "lat": 32.098565155949885,
    "lon": 34.9677392548778,
    "name": "מקלט - עירית  29 (גבעת טל)",
    "address": "עירית  29",
    "city": "ראש העין",
    "capacity": "60 אנשים",
    "type": "מקלט ציבורי עילי",
    "source": "gov",
    "category": "public"
  },
  {
    "id": "roshhaayin_25",
    "lat": 32.09154094500891,
    "lon": 34.96247437695283,
    "name": "מקלט - אילות  2 (גבעת טל)",
    "address": "אילות  2",
    "city": "ראש העין",
    "capacity": "51.528 אנשים",
    "type": "מקלט ציבורי עילי",
    "source": "gov",
    "category": "public"
  },
  {
    "id": "roshhaayin_17",
    "lat": 32.09493026103551,
    "lon": 34.96297979173028,
    "name": "מקלט - אילנות  21 (גבעת טל)",
    "address": "אילנות  21",
    "city": "ראש העין",
    "capacity": "60 אנשים",
    "type": "מקלט ציבורי עילי",
    "source": "gov",
    "category": "public"
  },
  {
    "id": "roshhaayin_18",
    "lat": 32.0954522357966,
    "lon": 34.96155923326626,
    "name": "מקלט - אילנות  32 (גבעת טל)",
    "address": "אילנות  32",
    "city": "ראש העין",
    "capacity": "85 אנשים",
    "type": "מקלט ציבורי עילי",
    "source": "gov",
    "category": "public"
  },
  {
    "id": "roshhaayin_14",
    "lat": 32.09640746480502,
    "lon": 34.9623980564269,
    "name": "מקלט - אילנות  46 (גבעת טל)",
    "address": "אילנות  46",
    "city": "ראש העין",
    "capacity": "60 אנשים",
    "type": "מקלט ציבורי עילי",
    "source": "gov",
    "category": "public"
  },
  {
    "id": "roshhaayin_6",
    "lat": 32.09726474248856,
    "lon": 34.96798772963699,
    "name": "מקלט - אמנון ותמר  3 (גבעת טל)",
    "address": "אמנון ותמר  3",
    "city": "ראש העין",
    "capacity": "60 אנשים",
    "type": "מקלט ציבורי עילי",
    "source": "gov",
    "category": "public"
  },
  {
    "id": "roshhaayin_13",
    "lat": 32.096236026432756,
    "lon": 34.96072078212942,
    "name": "מקלט - אתרוג  16 (גבעת טל)",
    "address": "אתרוג  16",
    "city": "ראש העין",
    "capacity": "60 אנשים",
    "type": "מקלט ציבורי עילי",
    "source": "gov",
    "category": "public"
  },
  {
    "id": "roshhaayin_5",
    "lat": 32.09753038066603,
    "lon": 34.96888201151609,
    "name": "מקלט - דליות  3 (גבעת טל)",
    "address": "דליות  3",
    "city": "ראש העין",
    "capacity": "85 אנשים",
    "type": "מקלט ציבורי עילי",
    "source": "gov",
    "category": "public"
  },
  {
    "id": "roshhaayin_12",
    "lat": 32.09513381662481,
    "lon": 34.96687524371178,
    "name": "מקלט - דן  11 (גבעת טל)",
    "address": "דן  11",
    "city": "ראש העין",
    "capacity": "85 אנשים",
    "type": "מקלט ציבורי עילי",
    "source": "gov",
    "category": "public"
  },
  {
    "id": "roshhaayin_11",
    "lat": 32.09575302146641,
    "lon": 34.96763394535394,
    "name": "מקלט - דרגות  9 (גבעת טל)",
    "address": "דרגות  9",
    "city": "ראש העין",
    "capacity": "85 אנשים",
    "type": "מקלט ציבורי עילי",
    "source": "gov",
    "category": "public"
  },
  {
    "id": "roshhaayin_10",
    "lat": 32.096051021346355,
    "lon": 34.96557290591793,
    "name": "מקלט - הבשור  13 (גבעת טל)",
    "address": "הבשור  13",
    "city": "ראש העין",
    "capacity": "60 אנשים",
    "type": "מקלט ציבורי עילי",
    "source": "gov",
    "category": "public"
  },
  {
    "id": "roshhaayin_27",
    "lat": 32.089922145133556,
    "lon": 34.96341631644566,
    "name": "מקלט - השפלה  14 (גבעת טל)",
    "address": "השפלה  14",
    "city": "ראש העין",
    "capacity": "60.6 אנשים",
    "type": "מקלט ציבורי עילי",
    "source": "gov",
    "category": "public"
  },
  {
    "id": "roshhaayin_16",
    "lat": 32.09493690487289,
    "lon": 34.964284355163805,
    "name": "מקלט - חרוב  9 (גבעת טל)",
    "address": "חרוב  9",
    "city": "ראש העין",
    "capacity": "52 אנשים",
    "type": "מקלט ציבורי עילי",
    "source": "gov",
    "category": "public"
  },
  {
    "id": "roshhaayin_26",
    "lat": 32.09065877690444,
    "lon": 34.9626161458536,
    "name": "מקלט - חרמון  12 (גבעת טל)",
    "address": "חרמון  12",
    "city": "ראש העין",
    "capacity": "71.776 אנשים",
    "type": "מקלט ציבורי עילי",
    "source": "gov",
    "category": "public"
  },
  {
    "id": "roshhaayin_21",
    "lat": 32.09294173545152,
    "lon": 34.96284999908231,
    "name": "מקלט - חרמון  32 (גבעת טל)",
    "address": "חרמון  32",
    "city": "ראש העין",
    "capacity": "84.968 אנשים",
    "type": "מקלט ציבורי עילי",
    "source": "gov",
    "category": "public"
  },
  {
    "id": "roshhaayin_24",
    "lat": 32.09137697431009,
    "lon": 34.96391788179418,
    "name": "מקלט - לכיש  18 (גבעת טל)",
    "address": "לכיש  18",
    "city": "ראש העין",
    "capacity": "71.776 אנשים",
    "type": "מקלט ציבורי עילי",
    "source": "gov",
    "category": "public"
  },
  {
    "id": "roshhaayin_19",
    "lat": 32.09445697237191,
    "lon": 34.96212900899187,
    "name": "מקלט - שקד  14 (גבעת טל)",
    "address": "שקד  14",
    "city": "ראש העין",
    "capacity": "52 אנשים",
    "type": "מקלט ציבורי עילי",
    "source": "gov",
    "category": "public"
  },
  {
    "id": "roshhaayin_20",
    "lat": 32.093446710146516,
    "lon": 34.96489400485599,
    "name": "מקלט - אגס  14 (גבעת טל)",
    "address": "אגס  14",
    "city": "ראש העין",
    "capacity": "51.28 אנשים",
    "type": "מקלט ציבורי עילי",
    "source": "gov",
    "category": "public"
  },
  {
    "id": "roshhaayin_44",
    "lat": 32.10254203938869,
    "lon": 34.94634398212492,
    "name": "מקלט - אבן עזרא מול  33",
    "address": "אבן עזרא מול  33",
    "city": "ראש העין",
    "capacity": "20 אנשים",
    "type": "מקלט ציבורי תת קרקעי",
    "source": "gov",
    "category": "public"
  },
  {
    "id": "roshhaayin_22",
    "lat": 32.092701112173806,
    "lon": 34.96447127759174,
    "name": "מקלט - אורן  14 (גבעת טל)",
    "address": "אורן  14",
    "city": "ראש העין",
    "capacity": "71.52 אנשים",
    "type": "מקלט ציבורי עילי",
    "source": "gov",
    "category": "public"
  },
  {
    "id": "roshhaayin_7",
    "lat": 32.097404537799,
    "lon": 34.96704586734422,
    "name": "מקלט - אירוס  4 (גבעת טל)",
    "address": "אירוס  4",
    "city": "ראש העין",
    "capacity": "52 אנשים",
    "type": "מקלט ציבורי עילי",
    "source": "gov",
    "category": "public"
  },
  {
    "id": "roshhaayin_23",
    "lat": 32.09145640009057,
    "lon": 34.96563568651209,
    "name": "מקלט - אלה 9 (גבעת טל)",
    "address": "אלה 9",
    "city": "ראש העין",
    "capacity": "71.52 אנשים",
    "type": "מקלט ציבורי עילי",
    "source": "gov",
    "category": "public"
  },
  {
    "id": "roshhaayin_32",
    "lat": 32.08808210908409,
    "lon": 34.96312883385637,
    "name": "מקלט - דיה  3 (גבעת טל)",
    "address": "דיה  3",
    "city": "ראש העין",
    "capacity": "32.696 אנשים",
    "type": "מקלט ציבורי עילי",
    "source": "gov",
    "category": "public"
  },
  {
    "id": "roshhaayin_35",
    "lat": 32.09875763600296,
    "lon": 34.938253839803224,
    "name": "מקלט - המוביל 34",
    "address": "המוביל 34",
    "city": "ראש העין",
    "capacity": "80 אנשים",
    "type": "מקלט ציבורי עילי",
    "source": "gov",
    "category": "public"
  },
  {
    "id": "roshhaayin_38",
    "lat": 32.10198910097328,
    "lon": 34.94834662571983,
    "name": "מקלט - מועדון פסיפס יחיא הלוי יצחק  33",
    "address": "מועדון פסיפס יחיא הלוי יצחק  33",
    "city": "ראש העין",
    "capacity": "80 אנשים",
    "type": "מקלט ציבורי עילי",
    "source": "gov",
    "category": "public"
  },
  {
    "id": "roshhaayin_36",
    "lat": 32.10152981404211,
    "lon": 34.940706354500556,
    "name": "מקלט - שלום מנצורה  32",
    "address": "שלום מנצורה  32",
    "city": "ראש העין",
    "capacity": "128 אנשים",
    "type": "מקלט ציבורי תת קרקעי",
    "source": "gov",
    "category": "public"
  },
  {
    "id": "roshhaayin_37",
    "lat": 32.10099246319658,
    "lon": 34.943126326486194,
    "name": "מקלט - חזון איש 9",
    "address": "חזון איש 9",
    "city": "ראש העין",
    "capacity": "40 אנשים",
    "type": "מקלט ציבורי תת קרקעי",
    "source": "gov",
    "category": "public"
  },
  {
    "id": "roshhaayin_43",
    "lat": 32.097497359491506,
    "lon": 34.95482117934208,
    "name": "מקלט - יהודה הלוי 41",
    "address": "יהודה הלוי 41",
    "city": "ראש העין",
    "capacity": "40 אנשים",
    "type": "מקלט ציבורי עילי",
    "source": "gov",
    "category": "public"
  },
  {
    "id": "roshhaayin_8",
    "lat": 32.09750105463233,
    "lon": 34.96581888696998,
    "name": "מקלט - יערה   10 (גבעת טל)",
    "address": "יערה   10",
    "city": "ראש העין",
    "capacity": "60 אנשים",
    "type": "מקלט ציבורי עילי",
    "source": "gov",
    "category": "public"
  },
  {
    "id": "roshhaayin_30",
    "lat": 32.08916076628151,
    "lon": 34.962151382268466,
    "name": "מקלט - כרמל  1 (גבעת טל)",
    "address": "כרמל  1",
    "city": "ראש העין",
    "capacity": "71.68 אנשים",
    "type": "מקלט ציבורי עילי",
    "source": "gov",
    "category": "public"
  },
  {
    "id": "roshhaayin_29",
    "lat": 32.08968943956849,
    "lon": 34.96454142822962,
    "name": "מקלט - כרמל  26 (גבעת טל)",
    "address": "כרמל  26",
    "city": "ראש העין",
    "capacity": "71.52 אנשים",
    "type": "מקלט ציבורי עילי",
    "source": "gov",
    "category": "public"
  },
  {
    "id": "roshhaayin_34",
    "lat": 32.09611729316932,
    "lon": 34.94486684161565,
    "name": "מקלט - מרבד הקסמים וולפסון שבזי",
    "address": "מרבד הקסמים וולפסון שבזי",
    "city": "ראש העין",
    "capacity": "128 אנשים",
    "type": "מקלט ציבורי תת קרקעי",
    "source": "gov",
    "category": "public"
  },
  {
    "id": "roshhaayin_28",
    "lat": 32.09027968046956,
    "lon": 34.96541916356911,
    "name": "מקלט - צאלון  7 (גבעת טל)",
    "address": "צאלון  7",
    "city": "ראש העין",
    "capacity": "84.72 אנשים",
    "type": "מקלט ציבורי עילי",
    "source": "gov",
    "category": "public"
  },
  {
    "id": "roshhaayin_48",
    "lat": 32.097622850229925,
    "lon": 34.94071602559315,
    "name": "מקלט - הסופר",
    "address": "הסופר",
    "city": "ראש העין",
    "capacity": "88 אנשים",
    "type": "מקלט ציבורי תת קרקעי",
    "source": "gov",
    "category": "public"
  },
  {
    "id": "roshhaayin_47",
    "lat": 32.09777432916481,
    "lon": 34.940831669435255,
    "name": "מקלט - הסופר",
    "address": "הסופר",
    "city": "ראש העין",
    "capacity": "88 אנשים",
    "type": "מקלט ציבורי עילי",
    "source": "gov",
    "category": "public"
  },
  {
    "id": "roshhaayin_45",
    "lat": 32.088972455485234,
    "lon": 34.952716005537496,
    "name": "מקלט - המיילדת 9",
    "address": "המיילדת 9",
    "city": "ראש העין",
    "capacity": "40 אנשים",
    "type": "מקלט ציבורי תת קרקעי",
    "source": "gov",
    "category": "public"
  },
  {
    "id": "roshhaayin_41",
    "lat": 32.095850125226264,
    "lon": 34.95643204197124,
    "name": "מקלט - עלי הכהן 7",
    "address": "עלי הכהן 7",
    "city": "ראש העין",
    "capacity": "20 אנשים",
    "type": "מקלט ציבורי עילי",
    "source": "gov",
    "category": "public"
  },
  {
    "id": "roshhaayin_46",
    "lat": 32.102311168926995,
    "lon": 34.95553803715953,
    "name": "מקלט - נתן שאול 7",
    "address": "נתן שאול 7",
    "city": "ראש העין",
    "capacity": "20 אנשים",
    "type": "מקלט ציבורי עילי",
    "source": "gov",
    "category": "public"
  },
  {
    "id": "roshhaayin_9",
    "lat": 32.097902985822884,
    "lon": 34.96477753020601,
    "name": "מקלט - ריחן  5 (גבעת טל)",
    "address": "ריחן  5",
    "city": "ראש העין",
    "capacity": "32 אנשים",
    "type": "מקלט ציבורי עילי",
    "source": "gov",
    "category": "public"
  },
  {
    "id": "roshhaayin_1",
    "lat": 32.0991015518714,
    "lon": 34.9652922878631,
    "name": "מקלט - רקפת 5 (גבעת טל)",
    "address": "רקפת 5",
    "city": "ראש העין",
    "capacity": "72 אנשים",
    "type": "מקלט ציבורי עילי",
    "source": "gov",
    "category": "public"
  },
  {
    "id": "roshhaayin_31",
    "lat": 32.0932293477155,
    "lon": 34.96121713320502,
    "name": "מקלט - תפוח 17 (גבעת טל)",
    "address": "תפוח 17",
    "city": "ראש העין",
    "capacity": "32.696 אנשים",
    "type": "מקלט ציבורי עילי",
    "source": "gov",
    "category": "public"
  },
  {
    "id": "roshhaayin_39",
    "lat": 32.09131202349104,
    "lon": 34.958856585365844,
    "name": "מקלט - רמת הגולן מול 14",
    "address": "רמת הגולן מול 14",
    "city": "ראש העין",
    "capacity": "20 אנשים",
    "type": "מקלט ציבורי עילי",
    "source": "gov",
    "category": "public"
  },
  {
    "id": "roshhaayin_40",
    "lat": 32.09317385551631,
    "lon": 34.956173023429244,
    "name": "מקלט - שילה  21",
    "address": "שילה  21",
    "city": "ראש העין",
    "capacity": "40 אנשים",
    "type": "מקלט ציבורי תת קרקעי",
    "source": "gov",
    "category": "public"
  },
  {
    "id": "roshhaayin_46",
    "lat": 32.09365823894239,
    "lon": 34.95710787277896,
    "name": "מקלט - שילה  23 (הרקפות)",
    "address": "שילה  23",
    "city": "ראש העין",
    "capacity": "110 מ\"ר",
    "type": "מקלט ציבורי תת קרקעי",
    "source": "gov",
    "category": "public"
  },
  {
    "id": "roshhaayin_47",
    "lat": 32.09987922209847,
    "lon": 34.942941757761616,
    "name": "מקלט - גן חורב מהריקא 5",
    "address": "גן חורב מהריקא 5",
    "city": "ראש העין",
    "capacity": "10 מ\"ר",
    "type": "מרחב מוגן יביל",
    "source": "gov",
    "category": "public"
  },
  {
    "id": "roshhaayin_48",
    "lat": 32.10374920982052,
    "lon": 34.94231450829462,
    "name": "מקלט - גן רימון צמוד לת\"ת בעקבי הצאן - רחוב הרב משה פנחס 6",
    "address": "גן רימון צמוד לת\"ת בעקבי הצאן - רחוב הרב משה פנחס 6",
    "city": "ראש העין",
    "capacity": "",
    "type": "מרחב מוגן יביל",
    "source": "gov",
    "category": "public"
  },
  {
    "id": "roshhaayin_49",
    "lat": 32.088586958159524,
    "lon": 34.9525272901578,
    "name": "מקלט - גן אקליפטוס רחוב המעפיל 1- המיילדת",
    "address": "גן אקליפטוס רחוב המעפיל 1- המיילדת",
    "city": "ראש העין",
    "capacity": "10 מ\"ר",
    "type": "מרחב מוגן יביל",
    "source": "gov",
    "category": "public"
  },
  {
    "id": "roshhaayin_50",
    "lat": 32.086747309901064,
    "lon": 34.97066925178503,
    "name": "מקלט - שבט מגן צופים - מתחם הקבלנים רחוב גרטי קורי",
    "address": "שבט מגן צופים - מתחם הקבלנים רחוב גרטי קורי",
    "city": "ראש העין",
    "capacity": "10 מ\"ר",
    "type": "מרחב מוגן יביל",
    "source": "gov",
    "category": "public"
  },
  {
    "id": "roshhaayin_51",
    "lat": 32.08589068317953,
    "lon": 34.97019684949525,
    "name": "מקלט - בתי כנסת יבילים מתחם 811 רחוב גרטי קורי",
    "address": "בתי כנסת יבילים מתחם 811 רחוב גרטי קורי",
    "city": "ראש העין",
    "capacity": "",
    "type": "מרחב מוגן יביל",
    "source": "gov",
    "category": "public"
  },
  {
    "id": "roshhaayin_52",
    "lat": 32.10107684901034,
    "lon": 34.94031315056897,
    "name": "מקלט - רמבם 19 בחניה",
    "address": "רמבם 19 בחניה",
    "city": "ראש העין",
    "capacity": "6 מ\"ר",
    "type": "מיגונית",
    "source": "gov",
    "category": "public"
  },
  {
    "id": "roshhaayin_53",
    "lat": 32.09693870220807,
    "lon": 34.94519972949482,
    "name": "מקלט - מרכז מסחרי מרבד הקסמים 9 חניה אחורית דורמית",
    "address": "מרכז מסחרי מרבד הקסמים 9 חניה אחורית דורמית",
    "city": "ראש העין",
    "capacity": "6 מ\"ר",
    "type": "מיגונית",
    "source": "gov",
    "category": "public"
  },
  {
    "id": "roshhaayin_54",
    "lat": 32.09530016753948,
    "lon": 34.94549343096071,
    "name": "מקלט - חניון יד לבנים",
    "address": "חניון יד לבנים",
    "city": "ראש העין",
    "capacity": "6 מ\"ר",
    "type": "מיגונית",
    "source": "gov",
    "category": "public"
  },
  {
    "id": "roshhaayin_55",
    "lat": 32.09281772617781,
    "lon": 34.946423000516326,
    "name": "מקלט - שבזי 64 בחנייה מאחורי רווחה",
    "address": "שבזי 64 בחנייה מאחורי רווחה",
    "city": "ראש העין",
    "capacity": "6 מ\"ר",
    "type": "מיגונית",
    "source": "gov",
    "category": "public"
  },
  {
    "id": "roshhaayin_56",
    "lat": 32.09895528889215,
    "lon": 34.94059591380983,
    "name": "מקלט - גן עדי",
    "address": "גן עדי",
    "city": "ראש העין",
    "capacity": "10 מ\"ר",
    "type": "מרחב מוגן יביל",
    "source": "gov",
    "category": "public"
  },
  {
    "id": "roshhaayin_57",
    "lat": 32.09902437616625,
    "lon": 34.94059940403292,
    "name": "מקלט - גן גלבוע",
    "address": "גן גלבוע",
    "city": "ראש העין",
    "capacity": "10 מ\"ר",
    "type": "מרחב מוגן יביל",
    "source": "gov",
    "category": "public"
  },
  {
    "id": "roshhaayin_58",
    "lat": 32.09712250697813,
    "lon": 34.94257941612948,
    "name": "מקלט - גן עפרוני העצמאות 20",
    "address": "גן עפרוני העצמאות 20",
    "city": "ראש העין",
    "capacity": "10 מ\"ר",
    "type": "מרחב מוגן יביל",
    "source": "gov",
    "category": "public"
  },
  {
    "id": "roshhaayin_59",
    "lat": 32.097140556186154,
    "lon": 34.94230162499552,
    "name": "מקלט - גן הדס העצמאות 20",
    "address": "גן הדס העצמאות 20",
    "city": "ראש העין",
    "capacity": "10 מ\"ר",
    "type": "מרחב מוגן יביל",
    "source": "gov",
    "category": "public"
  },
  {
    "id": "roshhaayin_60",
    "lat": 32.09987521230802,
    "lon": 34.942784476950806,
    "name": "מקלט - גן תשבר מהריקא 5",
    "address": "גן תשבר מהריקא 5",
    "city": "ראש העין",
    "capacity": "10 מ\"ר",
    "type": "מרחב מוגן יביל",
    "source": "gov",
    "category": "public"
  },
  {
    "id": "roshhaayin_61",
    "lat": 32.099898382458775,
    "lon": 34.94329813613245,
    "name": "מקלט - גן השלום מהריקא 5",
    "address": "גן השלום מהריקא 5",
    "city": "ראש העין",
    "capacity": "10 מ\"ר",
    "type": "מרחב מוגן יביל",
    "source": "gov",
    "category": "public"
  },
  {
    "id": "roshhaayin_62",
    "lat": 32.08865656586764,
    "lon": 34.95231278198393,
    "name": "מקלט - גן ברוש רחוב המעפיל 1- המיילדת",
    "address": "גן ברוש רחוב המעפיל 1- המיילדת",
    "city": "ראש העין",
    "capacity": "10 מ\"ר",
    "type": "מרחב מוגן יביל",
    "source": "gov",
    "category": "public"
  },
  {
    "id": "roshhaayin_63",
    "lat": 32.0958464567417,
    "lon": 34.951893199121756,
    "name": "מקלט - וגנר בחנייה סמוך לפארק",
    "address": "וגנר בחנייה סמוך לפארק",
    "city": "ראש העין",
    "capacity": "6 מ\"ר",
    "type": "מיגונית",
    "source": "gov",
    "category": "public"
  },
  {
    "id": "roshhaayin_64",
    "lat": 32.10552954448204,
    "lon": 34.9407508733171,
    "name": "מקלט - המרץ 19",
    "address": "המרץ 19",
    "city": "ראש העין",
    "capacity": "6 מ\"ר",
    "type": "מיגונית",
    "source": "gov",
    "category": "public"
  },
  {
    "id": "roshhaayin_65",
    "lat": 32.09193666392376,
    "lon": 34.9446110350074,
    "name": "מקלט - גן יורם",
    "address": "גן יורם",
    "city": "ראש העין",
    "capacity": "6 מ\"ר",
    "type": "מיגונית",
    "source": "gov",
    "category": "public"
  },
  {
    "id": "roshhaayin_66",
    "lat": 32.0984950624476,
    "lon": 34.944548687574986,
    "name": "מקלט - צהל/חזון איש בכניסה לחניה",
    "address": "צהל/חזון איש בכניסה לחניה",
    "city": "ראש העין",
    "capacity": "6 מ\"ר",
    "type": "מיגונית",
    "source": "gov",
    "category": "public"
  },
  {
    "id": "roshhaayin_67",
    "lat": 32.09880999373036,
    "lon": 34.945190055342984,
    "name": "מקלט - צה\"ל 20 במשטרה",
    "address": "צה\"ל 20 במשטרה",
    "city": "ראש העין",
    "capacity": "6 מ\"ר",
    "type": "מיגונית",
    "source": "gov",
    "category": "public"
  },
  {
    "id": "roshhaayin_68",
    "lat": 32.09348381687501,
    "lon": 34.948580380924646,
    "name": "מקלט - ביס אוהל שלום",
    "address": "ביס אוהל שלום",
    "city": "ראש העין",
    "capacity": "",
    "type": "מרחב מוגן במוסד חינוך",
    "source": "gov",
    "category": "public"
  },
  {
    "id": "roshhaayin_69",
    "lat": 32.09844065203875,
    "lon": 34.94833840388392,
    "name": "מקלט - ביס אוהל שרה",
    "address": "ביס אוהל שרה",
    "city": "ראש העין",
    "capacity": "",
    "type": "מרחב מוגן במוסד חינוך",
    "source": "gov",
    "category": "public"
  },
  {
    "id": "roshhaayin_70",
    "lat": 32.09059198421205,
    "lon": 34.95294798235021,
    "name": "מקלט - ביס אלומות רחל",
    "address": "ביס אלומות רחל",
    "city": "ראש העין",
    "capacity": "",
    "type": "מרחב מוגן במוסד חינוך",
    "source": "gov",
    "category": "public"
  },
  {
    "id": "roshhaayin_71",
    "lat": 32.09504206557592,
    "lon": 34.947702660876026,
    "name": "מקלט - ביס אולפנת זבולון",
    "address": "ביס אולפנת זבולון",
    "city": "ראש העין",
    "capacity": "",
    "type": "מרחב מוגן במוסד חינוך",
    "source": "gov",
    "category": "public"
  },
  {
    "id": "roshhaayin_72",
    "lat": 32.09147633110654,
    "lon": 34.95211079121625,
    "name": "מקלט - ביס תיכון בגין",
    "address": "ביס תיכון בגין",
    "city": "ראש העין",
    "capacity": "",
    "type": "מרחב מוגן במוסד חינוך",
    "source": "gov",
    "category": "public"
  },
  {
    "id": "roshhaayin_73",
    "lat": 32.09573000092878,
    "lon": 34.94732913287019,
    "name": "מקלט - ביס תיכון עתיד",
    "address": "ביס תיכון עתיד",
    "city": "ראש העין",
    "capacity": "",
    "type": "מרחב מוגן במוסד חינוך",
    "source": "gov",
    "category": "public"
  },
  {
    "id": "roshhaayin_74",
    "lat": 32.097244680589334,
    "lon": 34.95906118964518,
    "name": "מקלט - ביס צורים",
    "address": "ביס צורים",
    "city": "ראש העין",
    "capacity": "",
    "type": "מרחב מוגן במוסד חינוך",
    "source": "gov",
    "category": "public"
  },
  {
    "id": "roshhaayin_75",
    "lat": 32.089882877415235,
    "lon": 34.949758526467676,
    "name": "מקלט - ביס רמבם",
    "address": "ביס רמבם",
    "city": "ראש העין",
    "capacity": "",
    "type": "מרחב מוגן במוסד חינוך",
    "source": "gov",
    "category": "public"
  },
  {
    "id": "roshhaayin_76",
    "lat": 32.09642004786766,
    "lon": 34.950613537028765,
    "name": "מקלט - מועדון אביב רחוב דוד המלך 19",
    "address": "מועדון אביב רחוב דוד המלך 19",
    "city": "ראש העין",
    "capacity": "",
    "type": "מרחב מוגן במוסד חינוך",
    "source": "gov",
    "category": "public"
  },
  {
    "id": "roshhaayin_77",
    "lat": 32.09024282930935,
    "lon": 34.953653423823575,
    "name": "מקלט - מועדון החלוץ רחוב המתמיד 23- יהודה הלוי",
    "address": "מועדון החלוץ רחוב המתמיד 23- יהודה הלוי",
    "city": "ראש העין",
    "capacity": "",
    "type": "מרחב מוגן במוסד חינוך",
    "source": "gov",
    "category": "public"
  },
  {
    "id": "roshhaayin_78",
    "lat": 32.09763500977047,
    "lon": 34.946622425406574,
    "name": "מקלט - מתנס לב העיר רחוב מרבד הקסמים - מוזס עפרה 10",
    "address": "מתנס לב העיר רחוב מרבד הקסמים - מוזס עפרה 10",
    "city": "ראש העין",
    "capacity": "",
    "type": "מרחב מוגן במוסד חינוך",
    "source": "gov",
    "category": "public"
  },
  {
    "id": "roshhaayin_79",
    "lat": 32.10385790082295,
    "lon": 34.94244744756461,
    "name": "מקלט - תלמוד תורה בעקבי הצאן רחוב הרב משה פנחס 6",
    "address": "תלמוד תורה בעקבי הצאן רחוב הרב משה פנחס 6",
    "city": "ראש העין",
    "capacity": "",
    "type": "מרחב מוגן במוסד חינוך",
    "source": "gov",
    "category": "public"
  },
  {
    "id": "roshhaayin_80",
    "lat": 32.093078345474005,
    "lon": 34.94939545351018,
    "name": "מקלט - תיכון אשירה רחוב החמישה - בגין עליזה",
    "address": "תיכון אשירה רחוב החמישה - בגין עליזה",
    "city": "ראש העין",
    "capacity": "",
    "type": "מרחב מוגן במוסד חינוך",
    "source": "gov",
    "category": "public"
  },
  {
    "id": "roshhaayin_81",
    "lat": 32.096029976528754,
    "lon": 34.939307657729955,
    "name": "מקלט - הקולנוע הישן רחוב אבן גבירול 46",
    "address": "הקולנוע הישן רחוב אבן גבירול 46",
    "city": "ראש העין",
    "capacity": "",
    "type": "מרחב מוגן במוסד חינוך",
    "source": "gov",
    "category": "public"
  },
  {
    "id": "roshhaayin_82",
    "lat": 32.09149963570003,
    "lon": 34.95908464293296,
    "name": "מקלט - גני מרגנית צבעוני רחוב רמת הגולן מול 10",
    "address": "גני מרגנית צבעוני רחוב רמת הגולן מול 10",
    "city": "ראש העין",
    "capacity": "",
    "type": "מרחב מוגן במוסד חינוך",
    "source": "gov",
    "category": "public"
  },
  {
    "id": "roshhaayin_83",
    "lat": 32.08690571624219,
    "lon": 34.95745501413663,
    "name": "מקלט - ביס אשכול",
    "address": "ביס אשכול",
    "city": "ראש העין",
    "capacity": "",
    "type": "מרחב מוגן במוסד חינוך",
    "source": "gov",
    "category": "public"
  },
  {
    "id": "roshhaayin_84",
    "lat": 32.10375410267093,
    "lon": 34.943048742347756,
    "name": "מקלט - גני גפן ארז בעקבי הצאן רחוב הרב משה פנחס 6",
    "address": "גני גפן ארז בעקבי הצאן רחוב הרב משה פנחס 6",
    "city": "ראש העין",
    "capacity": "",
    "type": "מרחב מוגן במוסד חינוך",
    "source": "gov",
    "category": "public"
  },
  {
    "id": "roshhaayin_85",
    "lat": 32.09878699125116,
    "lon": 34.937143050948286,
    "name": "מקלט - גני צליל פעמון רחוב המוביל הארצי 28",
    "address": "גני צליל פעמון רחוב המוביל הארצי 28",
    "city": "ראש העין",
    "capacity": "",
    "type": "מרחב מוגן במוסד חינוך",
    "source": "gov",
    "category": "public"
  },
  {
    "id": "roshhaayin_86",
    "lat": 32.10195401451816,
    "lon": 34.963229867517924,
    "name": "מקלט - גן הרדוף רחוב הדרור 33",
    "address": "גן הרדוף רחוב הדרור 33",
    "city": "ראש העין",
    "capacity": "",
    "type": "מרחב מוגן במוסד חינוך",
    "source": "gov",
    "category": "public"
  },
  {
    "id": "roshhaayin_87",
    "lat": 32.09248016660042,
    "lon": 34.94480351603691,
    "name": "מקלט - מועדון הצריף רחוב מעודה שלמה 11",
    "address": "מועדון הצריף רחוב מעודה שלמה 11",
    "city": "ראש העין",
    "capacity": "",
    "type": "מרחב מוגן במוסד חינוך",
    "source": "gov",
    "category": "public"
  },
  {
    "id": "roshhaayin_88",
    "lat": 32.096318817665406,
    "lon": 34.93793682446401,
    "name": "מקלט - גן אתרוג רחוב העצמאות 6",
    "address": "גן אתרוג רחוב העצמאות 6",
    "city": "ראש העין",
    "capacity": "",
    "type": "מרחב מוגן במוסד חינוך",
    "source": "gov",
    "category": "public"
  },
  {
    "id": "roshhaayin_89",
    "lat": 32.102558172959235,
    "lon": 34.94505300814223,
    "name": "מקלט - מעון יום רחוב השריון - הגרא 13",
    "address": "מעון יום רחוב השריון - הגרא 13",
    "city": "ראש העין",
    "capacity": "",
    "type": "מרחב מוגן במוסד חינוך",
    "source": "gov",
    "category": "public"
  },
  {
    "id": "roshhaayin_90",
    "lat": 32.100722037783974,
    "lon": 34.959384257377216,
    "name": "מקלט - ביס אפק רחוב בזלת - גזית 19",
    "address": "ביס אפק רחוב בזלת - גזית 19",
    "city": "ראש העין",
    "capacity": "",
    "type": "מרחב מוגן במוסד חינוך",
    "source": "gov",
    "category": "public"
  },
  {
    "id": "roshhaayin_91",
    "lat": 32.09077151034581,
    "lon": 34.950010895617176,
    "name": "מקלט - גן סול רחוב דקר 6",
    "address": "גן סול רחוב דקר 6",
    "city": "ראש העין",
    "capacity": "",
    "type": "מרחב מוגן במוסד חינוך",
    "source": "gov",
    "category": "public"
  },
  {
    "id": "roshhaayin_92",
    "lat": 32.09771258044193,
    "lon": 34.965762557488375,
    "name": "מקלט - גני לבונה זמיר רחוב חרצית 3",
    "address": "גני לבונה זמיר רחוב חרצית 3",
    "city": "ראש העין",
    "capacity": "",
    "type": "מרחב מוגן במוסד חינוך",
    "source": "gov",
    "category": "public"
  },
  {
    "id": "roshhaayin_93",
    "lat": 32.09204714940959,
    "lon": 34.94569987016312,
    "name": "מקלט - גני נבל עוגב רחוב ספיר יעקב 10",
    "address": "גני נבל עוגב רחוב ספיר יעקב 10",
    "city": "ראש העין",
    "capacity": "",
    "type": "מרחב מוגן במוסד חינוך",
    "source": "gov",
    "category": "public"
  },
  {
    "id": "roshhaayin_94",
    "lat": 32.099455656902116,
    "lon": 34.942019276059234,
    "name": "מקלט - ביס בית יעקב רחוב מהריקא",
    "address": "ביס בית יעקב רחוב מהריקא",
    "city": "ראש העין",
    "capacity": "",
    "type": "מרחב מוגן במוסד חינוך",
    "source": "gov",
    "category": "public"
  },
  {
    "id": "roshhaayin_95",
    "lat": 32.10269516455985,
    "lon": 34.961924162440866,
    "name": "מקלט - גן אשל משעול היונה 1",
    "address": "גן אשל משעול היונה 1",
    "city": "ראש העין",
    "capacity": "",
    "type": "מרחב מוגן במוסד חינוך",
    "source": "gov",
    "category": "public"
  },
  {
    "id": "roshhaayin_96",
    "lat": 32.102834915602536,
    "lon": 34.945080850830934,
    "name": "מקלט - גן נווה רחוב השיריון 59 - צהל",
    "address": "גן נווה רחוב השיריון 59 - צהל",
    "city": "ראש העין",
    "capacity": "",
    "type": "מרחב מוגן במוסד חינוך",
    "source": "gov",
    "category": "public"
  }
]